{
  "metadata": {
    "description": "Data Section Site collection for NY Water Science Center",
    "development": "Written by Todd Siskin and Martyn Smith",
    "createdby": "CreateMapperLists Version 2.03B",
    "created": "12/03/22 02:05 AM"
  },
  "SitesCollection": [
    {
      "SiteID": "01304500",
      "Attributes": {
        "site_no": "01304500",
        "site_type": "sw",
        "station_nm": "PECONIC RIVER AT RIVERHEAD NY",
        "Office": "Coram",
        "latDD": "40.91369444",
        "lonDD": "-72.6869444",
        "nws_id": "PECN6"
      }
    },
    {
      "SiteID": "01305000",
      "Attributes": {
        "site_no": "01305000",
        "site_type": "sw",
        "station_nm": "CARMANS RIVER AT YAPHANK NY",
        "Office": "Coram",
        "latDD": "40.83016667",
        "lonDD": "-72.90613889",
        "nws_id": "n/a"
      }
    },
    {
      "SiteID": "01305500",
      "Attributes": {
        "site_no": "01305500",
        "site_type": "sw",
        "station_nm": "SWAN RIVER AT EAST PATCHOGUE NY",
        "Office": "Coram",
        "latDD": "40.76725",
        "lonDD": "-72.9938333",
        "nws_id": "n/a"
      }
    },
    {
      "SiteID": "01306460",
      "Attributes": {
        "site_no": "01306460",
        "site_type": "sw",
        "station_nm": "CONNETQUOT BK NR CENTRAL ISLIP NY",
        "Office": "Coram",
        "latDD": "40.77194444",
        "lonDD": "-73.1586111",
        "nws_id": "CNQN6"
      }
    },
    {
      "SiteID": "01308000",
      "Attributes": {
        "site_no": "01308000",
        "site_type": "sw",
        "station_nm": "SAMPAWAMS CREEK AT BABYLON NY",
        "Office": "Coram",
        "latDD": "40.7043611",
        "lonDD": "-73.31363889",
        "nws_id": "n/a"
      }
    },
    {
      "SiteID": "01308500",
      "Attributes": {
        "site_no": "01308500",
        "site_type": "sw",
        "station_nm": "CARLLS RIVER AT BABYLON NY",
        "Office": "Coram",
        "latDD": "40.7089722",
        "lonDD": "-73.3288056",
        "nws_id": "n/a"
      }
    },
    {
      "SiteID": "01306500",
      "Attributes": {
        "site_no": "01306500",
        "site_type": "sw",
        "station_nm": "CONNETQUOT RIVER NEAR OAKDALE NY",
        "Office": "Coram",
        "latDD": "40.7475",
        "lonDD": "-73.15027778",
        "nws_id": "n/a"
      }
    },
    {
      "SiteID": "01304000",
      "Attributes": {
        "site_no": "01304000",
        "site_type": "sw",
        "station_nm": "NISSEQUOGUE RIVER NEAR SMITHTOWN NY",
        "Office": "Coram",
        "latDD": "40.84991667",
        "lonDD": "-73.2242222",
        "nws_id": "n/a"
      }
    },
    {
      "SiteID": "01303000",
      "Attributes": {
        "site_no": "01303000",
        "site_type": "sw",
        "station_nm": "MILL NECK CREEK AT MILL NECK NY",
        "Office": "Coram",
        "latDD": "40.88741667",
        "lonDD": "-73.5631944",
        "nws_id": "n/a"
      }
    },
    {
      "SiteID": "01303500",
      "Attributes": {
        "site_no": "01303500",
        "site_type": "sw",
        "station_nm": "COLD SPRING BROOK AT COLD SPRING HARBOR NY",
        "Office": "Coram",
        "latDD": "40.85716667",
        "lonDD": "-73.4635556",
        "nws_id": "n/a"
      }
    },
    {
      "SiteID": "01309500",
      "Attributes": {
        "site_no": "01309500",
        "site_type": "sw",
        "station_nm": "MASSAPEQUA CREEK AT MASSAPEQUA NY",
        "Office": "Coram",
        "latDD": "40.689",
        "lonDD": "-73.45538889",
        "nws_id": "n/a"
      }
    },
    {
      "SiteID": "01309950",
      "Attributes": {
        "site_no": "01309950",
        "site_type": "sw",
        "station_nm": "BELLMORE CREEK NEAR BELLMORE NY",
        "Office": "Coram",
        "latDD": "40.67866667",
        "lonDD": "-73.5158611",
        "nws_id": "n/a"
      }
    },
    {
      "SiteID": "01309990",
      "Attributes": {
        "site_no": "01309990",
        "site_type": "sw",
        "station_nm": "BELLMORE CREEK TRIBUTARY AT BELLMORE NY",
        "Office": "Coram",
        "latDD": "40.6801111",
        "lonDD": "-73.513",
        "nws_id": "n/a"
      }
    },
    {
      "SiteID": "01310000",
      "Attributes": {
        "site_no": "01310000",
        "site_type": "sw",
        "station_nm": "BELLMORE CREEK AT BELLMORE NY",
        "Office": "Coram",
        "latDD": "40.6786111",
        "lonDD": "-73.5155556",
        "nws_id": "n/a"
      }
    },
    {
      "SiteID": "01310500",
      "Attributes": {
        "site_no": "01310500",
        "site_type": "sw",
        "station_nm": "EAST MEADOW BROOK AT FREEPORT NY",
        "Office": "Coram",
        "latDD": "40.66563889",
        "lonDD": "-73.5700833",
        "nws_id": "n/a"
      }
    },
    {
      "SiteID": "01311500",
      "Attributes": {
        "site_no": "01311500",
        "site_type": "sw",
        "station_nm": "VALLEY STREAM AT VALLEY STREAM NY",
        "Office": "Coram",
        "latDD": "40.66380556",
        "lonDD": "-73.70452778",
        "nws_id": "n/a"
      }
    },
    {
      "SiteID": "0131079450",
      "Attributes": {
        "site_no": "0131079450",
        "site_type": "sw",
        "station_nm": "HEMPSTEAD LAKE AT HEMPSTEAD NY",
        "Office": "Coram",
        "latDD": "40.67288029",
        "lonDD": "-73.6465184",
        "nws_id": "n/a"
      }
    },
    {
      "SiteID": "01304705",
      "Attributes": {
        "site_no": "01304705",
        "site_type": "sw",
        "station_nm": "GEORGICA POND NEAR APAQUOQUE NY",
        "Office": "Coram",
        "latDD": "40.93319444",
        "lonDD": "-72.2244444",
        "nws_id": "n/a"
      }
    },
    {
      "SiteID": "405925072165601",
      "Attributes": {
        "site_no": "405925072165601",
        "site_type": "at",
        "station_nm": "RAIN GAGE NEAR SAG HARBOR NY",
        "Office": "Coram",
        "latDD": "40.9903772",
        "lonDD": "-72.2817484",
        "nws_id": "SGHN6"
      }
    },
    {
      "SiteID": "01306495",
      "Attributes": {
        "site_no": "01306495",
        "site_type": "sw",
        "station_nm": "CONNETQUOT RIVER DISTRIBUTORY NEAR OAKDALE NY",
        "Office": "Coram",
        "latDD": "40.7500982",
        "lonDD": "-73.1476133",
        "nws_id": "n/a"
      }
    },
    {
      "SiteID": "01306499",
      "Attributes": {
        "site_no": "01306499",
        "site_type": "sw",
        "station_nm": "CONNETQUOT RIVER NEAR NORTH GREAT RIVER NY",
        "Office": "Coram",
        "latDD": "40.74759826",
        "lonDD": "-73.1503912",
        "nws_id": "n/a"
      }
    },
    {
      "SiteID": "01306400",
      "Attributes": {
        "site_no": "01306400",
        "site_type": "sw",
        "station_nm": "GREEN CREEK AT WEST SAYVILLE  NY",
        "Office": "Coram",
        "latDD": "40.7309318",
        "lonDD": "-73.09177818",
        "nws_id": "n/a"
      }
    },
    {
      "SiteID": "01305040",
      "Attributes": {
        "site_no": "01305040",
        "site_type": "sw",
        "station_nm": "CARMANS RIVER AT SOUTHHAVEN NY",
        "Office": "Coram",
        "latDD": "40.80259865",
        "lonDD": "-72.8853816",
        "nws_id": "n/a"
      }
    },
    {
      "SiteID": "01304995",
      "Attributes": {
        "site_no": "01304995",
        "site_type": "sw",
        "station_nm": "CARMANS RIVER NEAR YAPHANK NY",
        "Office": "Coram",
        "latDD": "40.84148748",
        "lonDD": "-72.9364935",
        "nws_id": "n/a"
      }
    },
    {
      "SiteID": "01303600",
      "Attributes": {
        "site_no": "01303600",
        "site_type": "sw",
        "station_nm": "MILL CREEK NEAR HUNTINGTON NY",
        "Office": "Coram",
        "latDD": "40.88232049",
        "lonDD": "-73.42095338",
        "nws_id": "n/a"
      }
    },
    {
      "SiteID": "01309800",
      "Attributes": {
        "site_no": "01309800",
        "site_type": "sw",
        "station_nm": "SEAMANS CREEK AT SEAFORD, N.Y.",
        "Office": "Coram",
        "latDD": "40.6656567",
        "lonDD": "-73.493181",
        "nws_id": "n/a"
      }
    },
    {
      "SiteID": "01303742",
      "Attributes": {
        "site_no": "01303742",
        "site_type": "sw",
        "station_nm": "FRESH POND OUTLET AT FORT SALONGA NY",
        "Office": "Coram",
        "latDD": "40.9239867",
        "lonDD": "-73.2948374",
        "nws_id": "n/a"
      }
    },
    {
      "SiteID": "01304051",
      "Attributes": {
        "site_no": "01304051",
        "site_type": "sw",
        "station_nm": "STONY BROOK R AT STONY BROOK NY",
        "Office": "Coram",
        "latDD": "40.91482044",
        "lonDD": "-73.1473323",
        "nws_id": "n/a"
      }
    },
    {
      "SiteID": "01304070",
      "Attributes": {
        "site_no": "01304070",
        "site_type": "sw",
        "station_nm": "TRIBUTARY TO PORT JEFFERSON HARBOR NY",
        "Office": "Coram",
        "latDD": "40.9448208",
        "lonDD": "-73.07121779",
        "nws_id": "n/a"
      }
    },
    {
      "SiteID": "01304990",
      "Attributes": {
        "site_no": "01304990",
        "site_type": "sw",
        "station_nm": "CARMANS RIVER AT MIDDLE ISLAND NY",
        "Office": "Coram",
        "latDD": "40.86315417",
        "lonDD": "-72.9426045",
        "nws_id": "n/a"
      }
    },
    {
      "SiteID": "01304998",
      "Attributes": {
        "site_no": "01304998",
        "site_type": "sw",
        "station_nm": "CARMANS RIVER BELOW LOWER LAKE AT YAPHANK NY",
        "Office": "Coram",
        "latDD": "40.83537638",
        "lonDD": "-72.9164931",
        "nws_id": "n/a"
      }
    },
    {
      "SiteID": "01304000",
      "Attributes": {
        "site_no": "01304000",
        "site_type": "sw",
        "station_nm": "NISSEQUOGUE RIVER NEAR SMITHTOWN NY",
        "Office": "Coram",
        "latDD": "40.84991667",
        "lonDD": "-73.2242222",
        "nws_id": "n/a"
      }
    },
    {
      "SiteID": "01304562",
      "Attributes": {
        "site_no": "01304562",
        "site_type": "sw",
        "station_nm": "PECONIC RIVER AT COUNTY HWY 105 AT RIVERHEAD NY",
        "Office": "Coram",
        "latDD": "40.91777778",
        "lonDD": "-72.6386667",
        "nws_id": "PRIN6"
      }
    },
    {
      "SiteID": "01310740",
      "Attributes": {
        "site_no": "01310740",
        "site_type": "sw",
        "station_nm": "REYNOLDS CHANNEL AT POINT LOOKOUT NY",
        "Office": "Coram",
        "latDD": "40.5934366",
        "lonDD": "-73.5837396",
        "nws_id": "REYN6"
      }
    },
    {
      "SiteID": "01311145",
      "Attributes": {
        "site_no": "01311145",
        "site_type": "sw",
        "station_nm": "EAST ROCKAWAY INLET AT ATLANTIC BEACH NY",
        "Office": "Coram",
        "latDD": "40.59316026",
        "lonDD": "-73.7373543",
        "nws_id": "RKWN6"
      }
    },
    {
      "SiteID": "01311850",
      "Attributes": {
        "site_no": "01311850",
        "site_type": "sw",
        "station_nm": "JAMAICA BAY AT INWOOD NY",
        "Office": "Coram",
        "latDD": "40.6173266",
        "lonDD": "-73.7579103",
        "nws_id": "IWDN6"
      }
    },
    {
      "SiteID": "01311875",
      "Attributes": {
        "site_no": "01311875",
        "site_type": "sw",
        "station_nm": "ROCKAWAY INLET NEAR FLOYD BENNETT FIELD NY",
        "Office": "Coram",
        "latDD": "40.57371636",
        "lonDD": "-73.885136",
        "nws_id": "RWYN6"
      }
    },
    {
      "SiteID": "404028073384601",
      "Attributes": {
        "site_no": "404028073384601",
        "site_type": "sw",
        "station_nm": "Hempstead Lake Buoy at Lakeview, NY",
        "Office": "Coram",
        "latDD": "40.67444444",
        "lonDD": "-73.6461111",
        "nws_id": "n/a"
      }
    },
    {
      "SiteID": "01304746",
      "Attributes": {
        "site_no": "01304746",
        "site_type": "sw",
        "station_nm": "SHINNECOCK BAY AT PONQUOGUE NY",
        "Office": "Coram",
        "latDD": "40.85055556",
        "lonDD": "-72.50327778",
        "nws_id": "SHIN6"
      }
    },
    {
      "SiteID": "01304920",
      "Attributes": {
        "site_no": "01304920",
        "site_type": "sw",
        "station_nm": "MORICHES BAY AT EAST MORICHES NY",
        "Office": "Coram",
        "latDD": "40.7881111",
        "lonDD": "-72.75086389",
        "nws_id": "MOBN6"
      }
    },
    {
      "SiteID": "01305575",
      "Attributes": {
        "site_no": "01305575",
        "site_type": "sw",
        "station_nm": "GREAT SOUTH BAY AT WATCH HILL ON FIRE ISLAND NY",
        "Office": "Coram",
        "latDD": "40.69138889",
        "lonDD": "-72.9896944",
        "nws_id": "FIRN6"
      }
    },
    {
      "SiteID": "01306402",
      "Attributes": {
        "site_no": "01306402",
        "site_type": "sw",
        "station_nm": "GREAT SOUTH BAY AT WEST SAYVILLE NY",
        "Office": "Coram",
        "latDD": "40.72105556",
        "lonDD": "-73.09125",
        "nws_id": "SAYN6"
      }
    },
    {
      "SiteID": "01309225",
      "Attributes": {
        "site_no": "01309225",
        "site_type": "sw",
        "station_nm": "GREAT SOUTH BAY AT LINDENHURST NY",
        "Office": "Coram",
        "latDD": "40.66926687",
        "lonDD": "-73.3556765",
        "nws_id": "LNDN6"
      }
    },
    {
      "SiteID": "01310521",
      "Attributes": {
        "site_no": "01310521",
        "site_type": "sw",
        "station_nm": "HUDSON BAY AT FREEPORT NY",
        "Office": "Coram",
        "latDD": "40.6276026",
        "lonDD": "-73.5754058",
        "nws_id": "FRPN6"
      }
    },
    {
      "SiteID": "404832073333203",
      "Attributes": {
        "site_no": "404832073333203",
        "site_type": "gw",
        "station_nm": "N  9059. 1",
        "Office": "Coram",
        "latDD": "40.80902778",
        "lonDD": "-73.55802778",
        "nws_id": "n/a"
      }
    },
    {
      "SiteID": "404834073403701",
      "Attributes": {
        "site_no": "404834073403701",
        "site_type": "gw",
        "station_nm": "N 12507. 1",
        "Office": "Coram",
        "latDD": "40.809545",
        "lonDD": "-73.6765185",
        "nws_id": "n/a"
      }
    },
    {
      "SiteID": "404931073382101",
      "Attributes": {
        "site_no": "404931073382101",
        "site_type": "gw",
        "station_nm": "N   110. 1",
        "Office": "Coram",
        "latDD": "40.8253778",
        "lonDD": "-73.6387393",
        "nws_id": "n/a"
      }
    },
    {
      "SiteID": "405125073420702",
      "Attributes": {
        "site_no": "405125073420702",
        "site_type": "gw",
        "station_nm": "N  6282. 2",
        "Office": "Coram",
        "latDD": "40.85688889",
        "lonDD": "-73.7014722",
        "nws_id": "n/a"
      }
    },
    {
      "SiteID": "405432073345001",
      "Attributes": {
        "site_no": "405432073345001",
        "site_type": "gw",
        "station_nm": "N  7152. 1",
        "Office": "Coram",
        "latDD": "40.90927778",
        "lonDD": "-73.57913889",
        "nws_id": "n/a"
      }
    },
    {
      "SiteID": "404751073240903",
      "Attributes": {
        "site_no": "404751073240903",
        "site_type": "gw",
        "station_nm": "S 16874. 3",
        "Office": "Coram",
        "latDD": "40.7975",
        "lonDD": "-73.40225",
        "nws_id": "n/a"
      }
    },
    {
      "SiteID": "404958073085001",
      "Attributes": {
        "site_no": "404958073085001",
        "site_type": "gw",
        "station_nm": "S  1812. 3",
        "Office": "Coram",
        "latDD": "40.8329722",
        "lonDD": "-73.1467222",
        "nws_id": "n/a"
      }
    },
    {
      "SiteID": "405030073180601",
      "Attributes": {
        "site_no": "405030073180601",
        "site_type": "gw",
        "station_nm": "S 65602. 1",
        "Office": "Coram",
        "latDD": "40.8410833",
        "lonDD": "-73.3012222",
        "nws_id": "n/a"
      }
    },
    {
      "SiteID": "405146073032002",
      "Attributes": {
        "site_no": "405146073032002",
        "site_type": "gw",
        "station_nm": "S  3513. 2",
        "Office": "Coram",
        "latDD": "40.86285",
        "lonDD": "-73.0557611",
        "nws_id": "n/a"
      }
    },
    {
      "SiteID": "405149072532201",
      "Attributes": {
        "site_no": "405149072532201",
        "site_type": "gw",
        "station_nm": "S  5517. 1",
        "Office": "Coram",
        "latDD": "40.8637097",
        "lonDD": "-72.8889921",
        "nws_id": "n/a"
      }
    },
    {
      "SiteID": "405223072523401",
      "Attributes": {
        "site_no": "405223072523401",
        "site_type": "gw",
        "station_nm": "S  6434. 1",
        "Office": "Coram",
        "latDD": "40.8728333",
        "lonDD": "-72.8757222",
        "nws_id": "n/a"
      }
    },
    {
      "SiteID": "405223072523402",
      "Attributes": {
        "site_no": "405223072523402",
        "site_type": "gw",
        "station_nm": "S  6455. 1",
        "Office": "Coram",
        "latDD": "40.8728333",
        "lonDD": "-72.87577778",
        "nws_id": "n/a"
      }
    },
    {
      "SiteID": "405308072553102",
      "Attributes": {
        "site_no": "405308072553102",
        "site_type": "gw",
        "station_nm": "S  6413. 2",
        "Office": "Coram",
        "latDD": "40.88565418",
        "lonDD": "-72.9248259",
        "nws_id": "n/a"
      }
    },
    {
      "SiteID": "404859073194002",
      "Attributes": {
        "site_no": "404859073194002",
        "site_type": "gw",
        "station_nm": "S 75454. 2",
        "Office": "Coram",
        "latDD": "40.81680556",
        "lonDD": "-73.3272222",
        "nws_id": "n/a"
      }
    },
    {
      "SiteID": "404505073131501",
      "Attributes": {
        "site_no": "404505073131501",
        "site_type": "gw",
        "station_nm": "S123414. 1",
        "Office": "Coram",
        "latDD": "40.7514871",
        "lonDD": "-73.2203936",
        "nws_id": "n/a"
      }
    },
    {
      "SiteID": "404530073181102",
      "Attributes": {
        "site_no": "404530073181102",
        "site_type": "gw",
        "station_nm": "S 76016. 2",
        "Office": "Coram",
        "latDD": "40.75852778",
        "lonDD": "-73.30252778",
        "nws_id": "n/a"
      }
    },
    {
      "SiteID": "404618073164205",
      "Attributes": {
        "site_no": "404618073164205",
        "site_type": "gw",
        "station_nm": "S  1810. 5",
        "Office": "Coram",
        "latDD": "40.77186389",
        "lonDD": "-73.2785611",
        "nws_id": "n/a"
      }
    },
    {
      "SiteID": "404812073004101",
      "Attributes": {
        "site_no": "404812073004101",
        "site_type": "gw",
        "station_nm": "S  3521. 1",
        "Office": "Coram",
        "latDD": "40.8033611",
        "lonDD": "-73.0108056",
        "nws_id": "n/a"
      }
    },
    {
      "SiteID": "404932073055902",
      "Attributes": {
        "site_no": "404932073055902",
        "site_type": "gw",
        "station_nm": "S 33380. 1",
        "Office": "Coram",
        "latDD": "40.82565387",
        "lonDD": "-73.09927679",
        "nws_id": "n/a"
      }
    },
    {
      "SiteID": "404935073055901",
      "Attributes": {
        "site_no": "404935073055901",
        "site_type": "gw",
        "station_nm": "S 33379. 1",
        "Office": "Coram",
        "latDD": "40.82565387",
        "lonDD": "-73.09927679",
        "nws_id": "n/a"
      }
    },
    {
      "SiteID": "405249073010701",
      "Attributes": {
        "site_no": "405249073010701",
        "site_type": "gw",
        "station_nm": "S120291. 1",
        "Office": "Coram",
        "latDD": "40.8811111",
        "lonDD": "-73.0073611",
        "nws_id": "n/a"
      }
    },
    {
      "SiteID": "405743072425701",
      "Attributes": {
        "site_no": "405743072425701",
        "site_type": "gw",
        "station_nm": "S  4271. 1",
        "Office": "Coram",
        "latDD": "40.9620428",
        "lonDD": "-72.7153761",
        "nws_id": "n/a"
      }
    },
    {
      "SiteID": "410634072223601",
      "Attributes": {
        "site_no": "410634072223601",
        "site_type": "gw",
        "station_nm": "S 16783. 2",
        "Office": "Coram",
        "latDD": "41.11025",
        "lonDD": "-72.37663889",
        "nws_id": "n/a"
      }
    },
    {
      "SiteID": "410438072213201",
      "Attributes": {
        "site_no": "410438072213201",
        "site_type": "gw",
        "station_nm": "S 73974. 1",
        "Office": "Coram",
        "latDD": "41.07755556",
        "lonDD": "-72.35638889",
        "nws_id": "n/a"
      }
    },
    {
      "SiteID": "410516072200901",
      "Attributes": {
        "site_no": "410516072200901",
        "site_type": "gw",
        "station_nm": "S 52084. 1",
        "Office": "Coram",
        "latDD": "41.08787695",
        "lonDD": "-72.33536049",
        "nws_id": "n/a"
      }
    },
    {
      "SiteID": "405830072331502",
      "Attributes": {
        "site_no": "405830072331502",
        "site_type": "gw",
        "station_nm": "S  6558. 2",
        "Office": "Coram",
        "latDD": "40.97519444",
        "lonDD": "-72.5538611",
        "nws_id": "n/a"
      }
    },
    {
      "SiteID": "405856072324001",
      "Attributes": {
        "site_no": "405856072324001",
        "site_type": "gw",
        "station_nm": "S125004. 1",
        "Office": "Coram",
        "latDD": "40.98236944",
        "lonDD": "-72.54468889",
        "nws_id": "n/a"
      }
    },
    {
      "SiteID": "405856072325801",
      "Attributes": {
        "site_no": "405856072325801",
        "site_type": "gw",
        "station_nm": "S125005. 1",
        "Office": "Coram",
        "latDD": "40.9823583",
        "lonDD": "-72.5495083",
        "nws_id": "n/a"
      }
    },
    {
      "SiteID": "403727073154503",
      "Attributes": {
        "site_no": "403727073154503",
        "site_type": "gw",
        "station_nm": "S 21311. 1",
        "Office": "Coram",
        "latDD": "40.6245447",
        "lonDD": "-73.2628961",
        "nws_id": "n/a"
      }
    },
    {
      "SiteID": "403727073154601",
      "Attributes": {
        "site_no": "403727073154601",
        "site_type": "gw",
        "station_nm": "S 21091. 1",
        "Office": "Coram",
        "latDD": "40.6245447",
        "lonDD": "-73.2628961",
        "nws_id": "n/a"
      }
    },
    {
      "SiteID": "403805073121002",
      "Attributes": {
        "site_no": "403805073121002",
        "site_type": "gw",
        "station_nm": "S125986. 1",
        "Office": "Coram",
        "latDD": "40.6347944",
        "lonDD": "-73.202255",
        "nws_id": "n/a"
      }
    },
    {
      "SiteID": "404358072520302",
      "Attributes": {
        "site_no": "404358072520302",
        "site_type": "gw",
        "station_nm": "S124400. 1",
        "Office": "Coram",
        "latDD": "40.73298785",
        "lonDD": "-72.867076",
        "nws_id": "n/a"
      }
    },
    {
      "SiteID": "405756072173502",
      "Attributes": {
        "site_no": "405756072173502",
        "site_type": "gw",
        "station_nm": "S  8833. 2",
        "Office": "Coram",
        "latDD": "40.9656552",
        "lonDD": "-72.292582",
        "nws_id": "n/a"
      }
    },
    {
      "SiteID": "410316071535501",
      "Attributes": {
        "site_no": "410316071535501",
        "site_type": "gw",
        "station_nm": "S 48579. 1",
        "Office": "Coram",
        "latDD": "41.0548611",
        "lonDD": "-71.8978056",
        "nws_id": "n/a"
      }
    },
    {
      "SiteID": "403505073401301",
      "Attributes": {
        "site_no": "403505073401301",
        "site_type": "gw",
        "station_nm": "N 11002. 1",
        "Office": "Coram",
        "latDD": "40.58491667",
        "lonDD": "-73.6696944",
        "nws_id": "n/a"
      }
    },
    {
      "SiteID": "403517073430702",
      "Attributes": {
        "site_no": "403517073430702",
        "site_type": "gw",
        "station_nm": "N  6702. 1",
        "Office": "Coram",
        "latDD": "40.58805556",
        "lonDD": "-73.7179167",
        "nws_id": "n/a"
      }
    },
    {
      "SiteID": "404030073293703",
      "Attributes": {
        "site_no": "404030073293703",
        "site_type": "gw",
        "station_nm": "N   180. 2",
        "Office": "Coram",
        "latDD": "40.675101",
        "lonDD": "-73.493181",
        "nws_id": "n/a"
      }
    },
    {
      "SiteID": "404031073382701",
      "Attributes": {
        "site_no": "404031073382701",
        "site_type": "gw",
        "station_nm": "N 11166. 1",
        "Office": "Coram",
        "latDD": "40.67538018",
        "lonDD": "-73.6404071",
        "nws_id": "n/a"
      }
    },
    {
      "SiteID": "404124073394901",
      "Attributes": {
        "site_no": "404124073394901",
        "site_type": "gw",
        "station_nm": "N  1129. 3",
        "Office": "Coram",
        "latDD": "40.69010238",
        "lonDD": "-73.6631855",
        "nws_id": "n/a"
      }
    },
    {
      "SiteID": "404210073340801",
      "Attributes": {
        "site_no": "404210073340801",
        "site_type": "gw",
        "station_nm": "N  1615. 4",
        "Office": "Coram",
        "latDD": "40.702879",
        "lonDD": "-73.5684605",
        "nws_id": "n/a"
      }
    },
    {
      "SiteID": "404237073433701",
      "Attributes": {
        "site_no": "404237073433701",
        "site_type": "gw",
        "station_nm": "N  7493. 1",
        "Office": "Coram",
        "latDD": "40.71010265",
        "lonDD": "-73.7259649",
        "nws_id": "n/a"
      }
    },
    {
      "SiteID": "404326073341801",
      "Attributes": {
        "site_no": "404326073341801",
        "site_type": "gw",
        "station_nm": "N 11570. 1",
        "Office": "Coram",
        "latDD": "40.72398978",
        "lonDD": "-73.5712382",
        "nws_id": "n/a"
      }
    },
    {
      "SiteID": "404327073341701",
      "Attributes": {
        "site_no": "404327073341701",
        "site_type": "gw",
        "station_nm": "N 11396. 1",
        "Office": "Coram",
        "latDD": "40.72426755",
        "lonDD": "-73.5709604",
        "nws_id": "n/a"
      }
    },
    {
      "SiteID": "404535073370002",
      "Attributes": {
        "site_no": "404535073370002",
        "site_type": "gw",
        "station_nm": "N  8269. 2",
        "Office": "Coram",
        "latDD": "40.75982298",
        "lonDD": "-73.6162392",
        "nws_id": "n/a"
      }
    },
    {
      "SiteID": "01304250",
      "Attributes": {
        "site_no": "01304250",
        "site_type": "sw",
        "station_nm": "LAUREL LAKE NEAR MATTITUCK NY",
        "Office": "Coram",
        "latDD": "40.97969444",
        "lonDD": "-72.55477778",
        "nws_id": "MTTN6"
      }
    },
    {
      "SiteID": "404553073351201",
      "Attributes": {
        "site_no": "404553073351201",
        "site_type": "gw",
        "station_nm": "N  1616. 3",
        "Office": "Coram",
        "latDD": "40.76490596",
        "lonDD": "-73.5862383",
        "nws_id": "n/a"
      }
    },
    {
      "SiteID": "404740073285701",
      "Attributes": {
        "site_no": "404740073285701",
        "site_type": "gw",
        "station_nm": "N  9089. 1",
        "Office": "Coram",
        "latDD": "40.78866667",
        "lonDD": "-73.48225",
        "nws_id": "n/a"
      }
    },
    {
      "SiteID": "404757073440401",
      "Attributes": {
        "site_no": "404757073440401",
        "site_type": "gw",
        "station_nm": "N  9099. 1",
        "Office": "Coram",
        "latDD": "40.79926788",
        "lonDD": "-73.7340204",
        "nws_id": "n/a"
      }
    },
    {
      "SiteID": "404818073293101",
      "Attributes": {
        "site_no": "404818073293101",
        "site_type": "gw",
        "station_nm": "N 11454. 1",
        "Office": "Coram",
        "latDD": "40.80509915",
        "lonDD": "-73.49151248",
        "nws_id": "n/a"
      }
    },
    {
      "SiteID": "404943073414701",
      "Attributes": {
        "site_no": "404943073414701",
        "site_type": "gw",
        "station_nm": "N 12508. 1",
        "Office": "Coram",
        "latDD": "40.82844444",
        "lonDD": "-73.6956944",
        "nws_id": "n/a"
      }
    },
    {
      "SiteID": "01304200",
      "Attributes": {
        "site_no": "01304200",
        "site_type": "sw",
        "station_nm": "ORIENT HARBOR AT ORIENT NY",
        "Office": "Coram",
        "latDD": "41.13663889",
        "lonDD": "-72.30675",
        "nws_id": "ORIN6"
      }
    },
    {
      "SiteID": "01304650",
      "Attributes": {
        "site_no": "01304650",
        "site_type": "sw",
        "station_nm": "SHELTER ISLAND SOUND AT SHELTER ISLAND NY",
        "Office": "Coram",
        "latDD": "41.04430556",
        "lonDD": "-72.3169722",
        "nws_id": "TERN6"
      }
    },
    {
      "SiteID": "01311143",
      "Attributes": {
        "site_no": "01311143",
        "site_type": "sw",
        "station_nm": "HOG ISLAND CHANNEL AT ISLAND PARK NY",
        "Office": "Coram",
        "latDD": "40.6088333",
        "lonDD": "-73.6561111",
        "nws_id": "HOGN6"
      }
    },
    {
      "SiteID": "01302250",
      "Attributes": {
        "site_no": "01302250",
        "site_type": "sw",
        "station_nm": "EAST CREEK AT SANDS POINT NY",
        "Office": "Coram",
        "latDD": "40.8662222",
        "lonDD": "-73.7101944",
        "nws_id": "SADN6"
      }
    },
    {
      "SiteID": "01302600",
      "Attributes": {
        "site_no": "01302600",
        "site_type": "sw",
        "station_nm": "WEST POND AT GLEN COVE NY",
        "Office": "Coram",
        "latDD": "40.88855556",
        "lonDD": "-73.638",
        "nws_id": "WESN6"
      }
    },
    {
      "SiteID": "01302845",
      "Attributes": {
        "site_no": "01302845",
        "site_type": "sw",
        "station_nm": "FROST CREEK AT SHEEP LN BRIDGE AT LATTINGTOWN NY",
        "Office": "Coram",
        "latDD": "40.9051111",
        "lonDD": "-73.5931944",
        "nws_id": "LATN6"
      }
    },
    {
      "SiteID": "01304057",
      "Attributes": {
        "site_no": "01304057",
        "site_type": "sw",
        "station_nm": "FLAX POND AT OLD FIELD NY",
        "Office": "Coram",
        "latDD": "40.9628611",
        "lonDD": "-73.1431667",
        "nws_id": "n/a"
      }
    },
    {
      "SiteID": "01302020",
      "Attributes": {
        "site_no": "01302020",
        "site_type": "sw",
        "station_nm": "BRONX RIVER AT NY BOTANICAL GARDEN AT BRONX NY",
        "Office": "Coram",
        "latDD": "40.86230556",
        "lonDD": "-73.87438889",
        "nws_id": "BBGN6"
      }
    },
    {
      "SiteID": "01376562",
      "Attributes": {
        "site_no": "01376562",
        "site_type": "sw",
        "station_nm": "GREAT KILLS HARBOR AT GREAT KILLS NY",
        "Office": "Coram",
        "latDD": "40.53888889",
        "lonDD": "-74.12988889",
        "nws_id": "KILN6"
      }
    },
    {
      "SiteID": "01304800",
      "Attributes": {
        "site_no": "01304800",
        "site_type": "sw",
        "station_nm": "BEAVERDAM CREEK AT WEST HAMPTON NY",
        "Office": "Coram",
        "latDD": "40.8231549",
        "lonDD": "-72.6612073",
        "nws_id": "n/a"
      }
    },
    {
      "SiteID": "01304600",
      "Attributes": {
        "site_no": "01304600",
        "site_type": "sw",
        "station_nm": "BIG FRESH POND OUTLET AT NORTH SEA NY",
        "Office": "Coram",
        "latDD": "40.9303781",
        "lonDD": "-72.4173075",
        "nws_id": "n/a"
      }
    },
    {
      "SiteID": "01304660",
      "Attributes": {
        "site_no": "01304660",
        "site_type": "sw",
        "station_nm": "LIGONEE BROOK AT SAG HARBOR NY",
        "Office": "Coram",
        "latDD": "40.98926625",
        "lonDD": "-72.3028599",
        "nws_id": "n/a"
      }
    },
    {
      "SiteID": "01304440",
      "Attributes": {
        "site_no": "01304440",
        "site_type": "sw",
        "station_nm": "PECONIC RIVER NEAR CALVERTON NY",
        "Office": "Coram",
        "latDD": "40.90065395",
        "lonDD": "-72.7737117",
        "nws_id": "n/a"
      }
    },
    {
      "SiteID": "01304730",
      "Attributes": {
        "site_no": "01304730",
        "site_type": "sw",
        "station_nm": "POXABOGUE POND OUTLET AT SAGAPONACK NY",
        "Office": "Coram",
        "latDD": "40.93009984",
        "lonDD": "-72.28730438",
        "nws_id": "n/a"
      }
    },
    {
      "SiteID": "01304760",
      "Attributes": {
        "site_no": "01304760",
        "site_type": "sw",
        "station_nm": "QUANTUCK CREEK AT QUOGUE NY",
        "Office": "Coram",
        "latDD": "40.8325996",
        "lonDD": "-72.617872",
        "nws_id": "n/a"
      }
    },
    {
      "SiteID": "01304860",
      "Attributes": {
        "site_no": "01304860",
        "site_type": "sw",
        "station_nm": "SEATUCK CREEK AT EASTPORT NY",
        "Office": "Coram",
        "latDD": "40.8250989",
        "lonDD": "-72.72815458",
        "nws_id": "n/a"
      }
    },
    {
      "SiteID": "01304400",
      "Attributes": {
        "site_no": "01304400",
        "site_type": "sw",
        "station_nm": "PECONIC RIVER NEAR MANORVILLE, N.Y.",
        "Office": "Coram",
        "latDD": "40.87732077",
        "lonDD": "-72.8278795",
        "nws_id": "n/a"
      }
    },
    {
      "SiteID": "01304510",
      "Attributes": {
        "site_no": "01304510",
        "site_type": "sw",
        "station_nm": "PECONIC RIVER AT NUGENT DR., RIVERHEAD, NY",
        "Office": "Coram",
        "latDD": "40.917599",
        "lonDD": "-72.6692627",
        "nws_id": "n/a"
      }
    },
    {
      "SiteID": "01304693",
      "Attributes": {
        "site_no": "01304693",
        "site_type": "sw",
        "station_nm": "HOOK POND TRIBUTARY AT EAST HAMPTON NY",
        "Office": "Coram",
        "latDD": "40.95954478",
        "lonDD": "-72.1778563",
        "nws_id": "n/a"
      }
    },
    {
      "SiteID": "424428077495401",
      "Attributes": {
        "site_no": "424428077495401",
        "site_type": "sw",
        "station_nm": "NY-SW2 MERRIMAC FARMS EDGE OF FIELD, E GROVELAND",
        "Office": "Ithaca",
        "latDD": "42.7409611",
        "lonDD": "-77.8316667",
        "nws_id": "n/a"
      }
    },
    {
      "SiteID": "424129077495501",
      "Attributes": {
        "site_no": "424129077495501",
        "site_type": "sw",
        "station_nm": "NY-SW4 ALFRED FARMS EDGE OF FIELD, SONYEA NY",
        "Office": "Ithaca",
        "latDD": "42.69138889",
        "lonDD": "-77.8320278",
        "nws_id": "n/a"
      }
    },
    {
      "SiteID": "424129077495502",
      "Attributes": {
        "site_no": "424129077495502",
        "site_type": "sw",
        "station_nm": "NY-TL2 ALFRED TILE EDGE OF FIELD, SONYEA",
        "Office": "Ithaca",
        "latDD": "42.6913611",
        "lonDD": "-77.83188889",
        "nws_id": "n/a"
      }
    },
    {
      "SiteID": "424131077495802",
      "Attributes": {
        "site_no": "424131077495802",
        "site_type": "sw",
        "station_nm": "NY-TL1 ALFRED TILE EDGE OF FIELD, SONYEA NY",
        "Office": "Ithaca",
        "latDD": "42.6918333",
        "lonDD": "-77.8324722",
        "nws_id": "n/a"
      }
    },
    {
      "SiteID": "424057077494301",
      "Attributes": {
        "site_no": "424057077494301",
        "site_type": "sw",
        "station_nm": "KESHEQUA CR RAIN GAGE AT CRAIG COLONY AT SONYEA NY",
        "Office": "Ithaca",
        "latDD": "42.6824722",
        "lonDD": "-77.8286944",
        "nws_id": "n/a"
      }
    },
    {
      "SiteID": "425439078535901",
      "Attributes": {
        "site_no": "425439078535901",
        "site_type": "gw",
        "station_nm": "E1920, PROSPECT AVE AND NIAGARA ST, NY",
        "Office": "Ithaca",
        "latDD": "42.91094444",
        "lonDD": "-78.8997778",
        "nws_id": "n/a"
      }
    },
    {
      "SiteID": "425512078535502",
      "Attributes": {
        "site_no": "425512078535502",
        "site_type": "gw",
        "station_nm": "E1933, WELLPOINT 1, GI PLANTER BOX S END AT MET ST",
        "Office": "Ithaca",
        "latDD": "42.92019444",
        "lonDD": "-78.8985556",
        "nws_id": "n/a"
      }
    },
    {
      "SiteID": "425514078535401",
      "Attributes": {
        "site_no": "425514078535401",
        "site_type": "gw",
        "station_nm": "E1921, LAFAYETTE AVE AND NIAGARA ST, NY",
        "Office": "Ithaca",
        "latDD": "42.92041667",
        "lonDD": "-78.8983333",
        "nws_id": "n/a"
      }
    },
    {
      "SiteID": "425514078535406",
      "Attributes": {
        "site_no": "425514078535406",
        "site_type": "sw",
        "station_nm": "NIAGARA STREET, CURB CUT 2",
        "Office": "Ithaca",
        "latDD": "42.9204111",
        "lonDD": "-78.8985083",
        "nws_id": "n/a"
      }
    },
    {
      "SiteID": "425514078535407",
      "Attributes": {
        "site_no": "425514078535407",
        "site_type": "sw",
        "station_nm": "NIAGARA STREET, CURB CUT 1",
        "Office": "Ithaca",
        "latDD": "42.92023056",
        "lonDD": "-78.8985444",
        "nws_id": "n/a"
      }
    },
    {
      "SiteID": "425514078535408",
      "Attributes": {
        "site_no": "425514078535408",
        "site_type": "sw",
        "station_nm": "NIAGARA STREET, CURB CUT 3",
        "Office": "Ithaca",
        "latDD": "42.9205111",
        "lonDD": "-78.89848889",
        "nws_id": "n/a"
      }
    },
    {
      "SiteID": "425514078535409",
      "Attributes": {
        "site_no": "425514078535409",
        "site_type": "sw",
        "station_nm": "NIAGARA STREET, CURB CUT 4",
        "Office": "Ithaca",
        "latDD": "42.92061667",
        "lonDD": "-78.8984694",
        "nws_id": "n/a"
      }
    },
    {
      "SiteID": "425515078535402",
      "Attributes": {
        "site_no": "425515078535402",
        "site_type": "gw",
        "station_nm": "E1934, WELLPOINT 2, GI PLANTER BOX N END AT MET ST",
        "Office": "Ithaca",
        "latDD": "42.9206222",
        "lonDD": "-78.8984722",
        "nws_id": "n/a"
      }
    },
    {
      "SiteID": "425515078535403",
      "Attributes": {
        "site_no": "425515078535403",
        "site_type": "sw",
        "station_nm": "NIAGARA STREET RECEIVER, SEWER PIPE OUTLET",
        "Office": "Ithaca",
        "latDD": "42.92063889",
        "lonDD": "-78.8984722",
        "nws_id": "n/a"
      }
    },
    {
      "SiteID": "425515078535404",
      "Attributes": {
        "site_no": "425515078535404",
        "site_type": "sw",
        "station_nm": "NIAGARA STREET, PLANTER BOX OUTLET TO RECEIVER",
        "Office": "Ithaca",
        "latDD": "42.92063889",
        "lonDD": "-78.8984722",
        "nws_id": "n/a"
      }
    },
    {
      "SiteID": "425516078535403",
      "Attributes": {
        "site_no": "425516078535403",
        "site_type": "sw",
        "station_nm": "NIAGARA STREET SAND FILTRATION DISTRIBUTION BOX",
        "Office": "Ithaca",
        "latDD": "42.9212222",
        "lonDD": "-78.8983611",
        "nws_id": "n/a"
      }
    },
    {
      "SiteID": "425516078535404",
      "Attributes": {
        "site_no": "425516078535404",
        "site_type": "sw",
        "station_nm": "UPPER FLUME, SAND FILTER ENTER",
        "Office": "Ithaca",
        "latDD": "42.92119444",
        "lonDD": "-78.89838889",
        "nws_id": "n/a"
      }
    },
    {
      "SiteID": "425516078535405",
      "Attributes": {
        "site_no": "425516078535405",
        "site_type": "sw",
        "station_nm": "LOWER FLUME, SAND FILTER EXIT",
        "Office": "Ithaca",
        "latDD": "42.92119444",
        "lonDD": "-78.89838889",
        "nws_id": "n/a"
      }
    },
    {
      "SiteID": "425520078535601",
      "Attributes": {
        "site_no": "425520078535601",
        "site_type": "sw",
        "station_nm": "MANHOLE, WEST DELAVAN AVE, 110 FT W OF NIAGARA ST",
        "Office": "Ithaca",
        "latDD": "42.92227778",
        "lonDD": "-78.8988333",
        "nws_id": "n/a"
      }
    },
    {
      "SiteID": "425534078535201",
      "Attributes": {
        "site_no": "425534078535201",
        "site_type": "gw",
        "station_nm": "E1922, BIRD AVE AND NIAGARA ST, NY",
        "Office": "Ithaca",
        "latDD": "42.9259722",
        "lonDD": "-78.8977222",
        "nws_id": "n/a"
      }
    },
    {
      "SiteID": "425543078535001",
      "Attributes": {
        "site_no": "425543078535001",
        "site_type": "sw",
        "station_nm": "MANHOLE, 50 FT E NIAGARA ST, 115 FT S SCAJAQUADA C",
        "Office": "Ithaca",
        "latDD": "42.9285",
        "lonDD": "-78.8973056",
        "nws_id": "n/a"
      }
    },
    {
      "SiteID": "03010820",
      "Attributes": {
        "site_no": "03010820",
        "site_type": "sw",
        "station_nm": "ALLEGHENY RIVER AT OLEAN NY",
        "Office": "Ithaca",
        "latDD": "42.07305556",
        "lonDD": "-78.4511111",
        "nws_id": "OLNN6"
      }
    },
    {
      "SiteID": "03011020",
      "Attributes": {
        "site_no": "03011020",
        "site_type": "sw",
        "station_nm": "ALLEGHENY RIVER AT SALAMANCA NY",
        "Office": "Ithaca",
        "latDD": "42.1561111",
        "lonDD": "-78.7149167",
        "nws_id": "SLMN6"
      }
    },
    {
      "SiteID": "03013946",
      "Attributes": {
        "site_no": "03013946",
        "site_type": "sw",
        "station_nm": "CHAUTAUQUA LAKE AT BEMUS POINT NY",
        "Office": "Ithaca",
        "latDD": "42.15644444",
        "lonDD": "-79.3938333",
        "nws_id": "BEPN6"
      }
    },
    {
      "SiteID": "03014500",
      "Attributes": {
        "site_no": "03014500",
        "site_type": "sw",
        "station_nm": "CHADAKOIN RIVER AT FALCONER NY",
        "Office": "Ithaca",
        "latDD": "42.11263889",
        "lonDD": "-79.20363889",
        "nws_id": "FLCN6"
      }
    },
    {
      "SiteID": "04213319",
      "Attributes": {
        "site_no": "04213319",
        "site_type": "sw",
        "station_nm": "CHAUTAUQUA CREEK BELOW WESTFIELD NY",
        "Office": "Ithaca",
        "latDD": "42.33080556",
        "lonDD": "-79.5899167",
        "nws_id": "WFLN6"
      }
    },
    {
      "SiteID": "04213376",
      "Attributes": {
        "site_no": "04213376",
        "site_type": "sw",
        "station_nm": "CANADAWAY CREEK AT FREDONIA NY",
        "Office": "Ithaca",
        "latDD": "42.45063889",
        "lonDD": "-79.3504444",
        "nws_id": "FDAN6"
      }
    },
    {
      "SiteID": "04213394",
      "Attributes": {
        "site_no": "04213394",
        "site_type": "sw",
        "station_nm": "SILVER CREEK AT US ROUTE 20 AT SILVER CREEK NY",
        "Office": "Ithaca",
        "latDD": "42.54391667",
        "lonDD": "-79.1646667",
        "nws_id": "SVRN6"
      }
    },
    {
      "SiteID": "04213401",
      "Attributes": {
        "site_no": "04213401",
        "site_type": "sw",
        "station_nm": "WALNUT CREEK AT US ROUTE 20 AT SILVER CREEK NY",
        "Office": "Ithaca",
        "latDD": "42.5383611",
        "lonDD": "-79.1689722",
        "nws_id": "WNCN6"
      }
    },
    {
      "SiteID": "04213500",
      "Attributes": {
        "site_no": "04213500",
        "site_type": "sw",
        "station_nm": "CATTARAUGUS CREEK AT GOWANDA NY",
        "Office": "Ithaca",
        "latDD": "42.46344444",
        "lonDD": "-78.9345278",
        "nws_id": "GOWN6"
      }
    },
    {
      "SiteID": "04213508",
      "Attributes": {
        "site_no": "04213508",
        "site_type": "sw",
        "station_nm": "THATCHER BROOK AT GOWANDA NY",
        "Office": "Ithaca",
        "latDD": "42.45352778",
        "lonDD": "-78.9415556",
        "nws_id": "THAN6"
      }
    },
    {
      "SiteID": "04214060",
      "Attributes": {
        "site_no": "04214060",
        "site_type": "sw",
        "station_nm": "BIG SISTER CREEK AT EVANS CENTER NY",
        "Office": "Ithaca",
        "latDD": "42.65713889",
        "lonDD": "-79.0355",
        "nws_id": "EVCN6"
      }
    },
    {
      "SiteID": "0421422210",
      "Attributes": {
        "site_no": "0421422210",
        "site_type": "sw",
        "station_nm": "EIGHTEENMILE CREEK AT HAMBURG NY",
        "Office": "Ithaca",
        "latDD": "42.70655556",
        "lonDD": "-78.84925",
        "nws_id": "HMBN6"
      }
    },
    {
      "SiteID": "04214231",
      "Attributes": {
        "site_no": "04214231",
        "site_type": "sw",
        "station_nm": "S BR EIGHTEENMILE CR AT BLEY RD AT EDEN VALLEY",
        "Office": "Ithaca",
        "latDD": "42.68027778",
        "lonDD": "-78.8786944",
        "nws_id": "BLEN6"
      }
    },
    {
      "SiteID": "420326079295801",
      "Attributes": {
        "site_no": "420326079295801",
        "site_type": "gw",
        "station_nm": "Local number, Cu-5, near Panama NY",
        "Office": "Ithaca",
        "latDD": "42.05744444",
        "lonDD": "-79.4991944",
        "nws_id": "PNAN6"
      }
    },
    {
      "SiteID": "420530078445201",
      "Attributes": {
        "site_no": "420530078445201",
        "site_type": "gw",
        "station_nm": "Local number, Ct-121, near Red House NY",
        "Office": "Ithaca",
        "latDD": "42.0918333",
        "lonDD": "-78.7475278",
        "nws_id": "RHSN6"
      }
    },
    {
      "SiteID": "420703079442501",
      "Attributes": {
        "site_no": "420703079442501",
        "site_type": "at",
        "station_nm": "FINDLEY LAKE RAIN GAGE",
        "Office": "Ithaca",
        "latDD": "42.11741944",
        "lonDD": "-79.7402333",
        "nws_id": "FDLN6"
      }
    },
    {
      "SiteID": "421217079183601",
      "Attributes": {
        "site_no": "421217079183601",
        "site_type": "gw",
        "station_nm": "Local number, Cu-867 near Gerry NY",
        "Office": "Ithaca",
        "latDD": "42.20475",
        "lonDD": "-79.3101944",
        "nws_id": "CRCN6"
      }
    },
    {
      "SiteID": "421429079295601",
      "Attributes": {
        "site_no": "421429079295601",
        "site_type": "at",
        "station_nm": "MAYVILLE RAIN GAGE",
        "Office": "Ithaca",
        "latDD": "42.24141667",
        "lonDD": "-79.4990278",
        "nws_id": "MYVN6"
      }
    },
    {
      "SiteID": "421511079161701",
      "Attributes": {
        "site_no": "421511079161701",
        "site_type": "at",
        "station_nm": "SINCLAIRVILLE RAIN GAGE NEAR SINCLAIRVILLE NY",
        "Office": "Ithaca",
        "latDD": "42.25327778",
        "lonDD": "-79.2711944",
        "nws_id": "SNCN6"
      }
    },
    {
      "SiteID": "421932078513701",
      "Attributes": {
        "site_no": "421932078513701",
        "site_type": "at",
        "station_nm": "CATTARAUGUS RAIN GAGE",
        "Office": "Ithaca",
        "latDD": "42.3275833",
        "lonDD": "-78.8603333",
        "nws_id": "CGSN6"
      }
    },
    {
      "SiteID": "422702079005101",
      "Attributes": {
        "site_no": "422702079005101",
        "site_type": "gw",
        "station_nm": "Local number, Ct-2498, near Perrysburg NY",
        "Office": "Ithaca",
        "latDD": "42.45044444",
        "lonDD": "-79.0142778",
        "nws_id": "PRGN6"
      }
    },
    {
      "SiteID": "04214500",
      "Attributes": {
        "site_no": "04214500",
        "site_type": "sw",
        "station_nm": "BUFFALO CREEK AT GARDENVILLE NY",
        "Office": "Ithaca",
        "latDD": "42.8546111",
        "lonDD": "-78.7564167",
        "nws_id": "GDVN6"
      }
    },
    {
      "SiteID": "04215500",
      "Attributes": {
        "site_no": "04215500",
        "site_type": "sw",
        "station_nm": "CAZENOVIA CREEK AT EBENEZER NY",
        "Office": "Ithaca",
        "latDD": "42.82952778",
        "lonDD": "-78.7750278",
        "nws_id": "EBZN6"
      }
    },
    {
      "SiteID": "04220253",
      "Attributes": {
        "site_no": "04220253",
        "site_type": "sw",
        "station_nm": "LAKE ONTARIO AT BRADDOCK HEIGHTS NY",
        "Office": "Ithaca",
        "latDD": "43.31532778",
        "lonDD": "-77.7277861",
        "nws_id": "BDKN6"
      }
    },
    {
      "SiteID": "0422026250",
      "Attributes": {
        "site_no": "0422026250",
        "site_type": "sw",
        "station_nm": "NORTHRUP CREEK AT NORTH GREECE NY",
        "Office": "Ithaca",
        "latDD": "43.2538611",
        "lonDD": "-77.7420833",
        "nws_id": "NGRN6"
      }
    },
    {
      "SiteID": "04230500",
      "Attributes": {
        "site_no": "04230500",
        "site_type": "sw",
        "station_nm": "OATKA CREEK AT GARBUTT NY",
        "Office": "Ithaca",
        "latDD": "43.01",
        "lonDD": "-77.79138889",
        "nws_id": "GRBN6"
      }
    },
    {
      "SiteID": "04231000",
      "Attributes": {
        "site_no": "04231000",
        "site_type": "sw",
        "station_nm": "BLACK CREEK AT CHURCHVILLE NY",
        "Office": "Ithaca",
        "latDD": "43.10055556",
        "lonDD": "-77.8822222",
        "nws_id": "CHCN6"
      }
    },
    {
      "SiteID": "0422027420",
      "Attributes": {
        "site_no": "0422027420",
        "site_type": "sw",
        "station_nm": "ROUND POND CREEK AT CONTROL VALVE AT GREECE NY",
        "Office": "Ithaca",
        "latDD": "43.19325",
        "lonDD": "-77.71102778",
        "nws_id": "RNDN6"
      }
    },
    {
      "SiteID": "0422027430",
      "Attributes": {
        "site_no": "0422027430",
        "site_type": "sw",
        "station_nm": "ROUND POND CREEK AT STRAUB ROAD AT GREECE NY",
        "Office": "Ithaca",
        "latDD": "43.19805556",
        "lonDD": "-77.7108611",
        "nws_id": "n/a"
      }
    },
    {
      "SiteID": "04230650",
      "Attributes": {
        "site_no": "04230650",
        "site_type": "sw",
        "station_nm": "GENESEE R AT BALLANTYNE BRIDGE NEAR MORTIMER NY",
        "Office": "Ithaca",
        "latDD": "43.09294444",
        "lonDD": "-77.6808333",
        "nws_id": "BLBN6"
      }
    },
    {
      "SiteID": "04231401",
      "Attributes": {
        "site_no": "04231401",
        "site_type": "sw",
        "station_nm": "RED CREEK BELOW CO HWY 85 AT MORTIMER NY",
        "Office": "Ithaca",
        "latDD": "43.09352778",
        "lonDD": "-77.6507222",
        "nws_id": "n/a"
      }
    },
    {
      "SiteID": "04231600",
      "Attributes": {
        "site_no": "04231600",
        "site_type": "sw",
        "station_nm": "GENESEE RIVER AT FORD STREET BRIDGE, ROCHESTER NY",
        "Office": "Ithaca",
        "latDD": "43.1417222",
        "lonDD": "-77.6163056",
        "nws_id": "ROHN6"
      }
    },
    {
      "SiteID": "04232050",
      "Attributes": {
        "site_no": "04232050",
        "site_type": "sw",
        "station_nm": "ALLEN CREEK NEAR ROCHESTER NY",
        "Office": "Ithaca",
        "latDD": "43.12802778",
        "lonDD": "-77.527",
        "nws_id": "ALLN6"
      }
    },
    {
      "SiteID": "0423205010",
      "Attributes": {
        "site_no": "0423205010",
        "site_type": "sw",
        "station_nm": "IRONDEQUOIT CR ABOVE BLOSSOM RD NEAR ROCHESTER NY",
        "Office": "Ithaca",
        "latDD": "43.145",
        "lonDD": "-77.5119444",
        "nws_id": "IRON6"
      }
    },
    {
      "SiteID": "04234200",
      "Attributes": {
        "site_no": "04234200",
        "site_type": "sw",
        "station_nm": "MUD CREEK AT EAST VICTOR NY",
        "Office": "Ithaca",
        "latDD": "42.97469444",
        "lonDD": "-77.3825",
        "nws_id": "n/a"
      }
    },
    {
      "SiteID": "430252077283402",
      "Attributes": {
        "site_no": "430252077283402",
        "site_type": "gw",
        "station_nm": "Local number, Mo-11, near Powder Mill Park NY",
        "Office": "Ithaca",
        "latDD": "43.048",
        "lonDD": "-77.47575",
        "nws_id": "PMPN6"
      }
    },
    {
      "SiteID": "04232034",
      "Attributes": {
        "site_no": "04232034",
        "site_type": "sw",
        "station_nm": "IRONDEQUOIT CR AT RAILROAD MILLS NEAR FISHERS NY",
        "Office": "Ithaca",
        "latDD": "43.0278333",
        "lonDD": "-77.4787222",
        "nws_id": "RRMN6"
      }
    },
    {
      "SiteID": "04218700",
      "Attributes": {
        "site_no": "04218700",
        "site_type": "sw",
        "station_nm": "ERIE(BARGE)CANAL(W OF GENESEE R)AT ROCHESTER NY",
        "Office": "Ithaca",
        "latDD": "43.1256111",
        "lonDD": "-77.6501111",
        "nws_id": "RCSN6"
      }
    },
    {
      "SiteID": "042320578",
      "Attributes": {
        "site_no": "042320578",
        "site_type": "sw",
        "station_nm": "BEAR CREEK AT ONTARIO NY",
        "Office": "Ithaca",
        "latDD": "43.22513889",
        "lonDD": "-77.28327778",
        "nws_id": "n/a"
      }
    },
    {
      "SiteID": "04232053",
      "Attributes": {
        "site_no": "04232053",
        "site_type": "sw",
        "station_nm": "MILL CREEK NEAR WEBSTER NY",
        "Office": "Ithaca",
        "latDD": "43.25769444",
        "lonDD": "-77.4468611",
        "nws_id": "WBTN6"
      }
    },
    {
      "SiteID": "431410077232701",
      "Attributes": {
        "site_no": "431410077232701",
        "site_type": "gw",
        "station_nm": "Local number, Mo-101, near Webster NY",
        "Office": "Ithaca",
        "latDD": "43.23619444",
        "lonDD": "-77.3908056",
        "nws_id": "n/a"
      }
    },
    {
      "SiteID": "0423205342",
      "Attributes": {
        "site_no": "0423205342",
        "site_type": "sw",
        "station_nm": "LAKE ONTARIO AT NINEMILE POINT NEAR WEBSTER NY",
        "Office": "Ithaca",
        "latDD": "43.26696389",
        "lonDD": "-77.43393889",
        "nws_id": "WEBN6"
      }
    },
    {
      "SiteID": "01520500",
      "Attributes": {
        "site_no": "01520500",
        "site_type": "sw",
        "station_nm": "TIOGA RIVER AT LINDLEY NY",
        "Office": "Ithaca",
        "latDD": "42.0286111",
        "lonDD": "-77.1322222",
        "nws_id": "LDYN6"
      }
    },
    {
      "SiteID": "01525981",
      "Attributes": {
        "site_no": "01525981",
        "site_type": "sw",
        "station_nm": "TUSCARORA CREEK ABOVE SOUTH ADDISON NY",
        "Office": "Ithaca",
        "latDD": "42.0722222",
        "lonDD": "-77.29888889",
        "nws_id": "ADNN6"
      }
    },
    {
      "SiteID": "01526500",
      "Attributes": {
        "site_no": "01526500",
        "site_type": "sw",
        "station_nm": "TIOGA RIVER NEAR ERWINS NY",
        "Office": "Ithaca",
        "latDD": "42.1211111",
        "lonDD": "-77.1291667",
        "nws_id": "ERWN6"
      }
    },
    {
      "SiteID": "01527500",
      "Attributes": {
        "site_no": "01527500",
        "site_type": "sw",
        "station_nm": "COHOCTON RIVER AT AVOCA NY",
        "Office": "Ithaca",
        "latDD": "42.41105556",
        "lonDD": "-77.4263611",
        "nws_id": "AVCN6"
      }
    },
    {
      "SiteID": "01528320",
      "Attributes": {
        "site_no": "01528320",
        "site_type": "sw",
        "station_nm": "COHOCTON RIVER AT BATH NY",
        "Office": "Ithaca",
        "latDD": "42.3433333",
        "lonDD": "-77.34388889",
        "nws_id": "BAHN6"
      }
    },
    {
      "SiteID": "01529500",
      "Attributes": {
        "site_no": "01529500",
        "site_type": "sw",
        "station_nm": "COHOCTON RIVER NEAR CAMPBELL NY",
        "Office": "Ithaca",
        "latDD": "42.2525",
        "lonDD": "-77.2166667",
        "nws_id": "CMPN6"
      }
    },
    {
      "SiteID": "01529950",
      "Attributes": {
        "site_no": "01529950",
        "site_type": "sw",
        "station_nm": "CHEMUNG RIVER AT CORNING NY",
        "Office": "Ithaca",
        "latDD": "42.14641667",
        "lonDD": "-77.0575",
        "nws_id": "CRNN6"
      }
    },
    {
      "SiteID": "01530301",
      "Attributes": {
        "site_no": "01530301",
        "site_type": "sw",
        "station_nm": "CUTHRIE RUN NEAR BIG FLATS NY",
        "Office": "Ithaca",
        "latDD": "42.1786111",
        "lonDD": "-76.92527778",
        "nws_id": "n/a"
      }
    },
    {
      "SiteID": "01530332",
      "Attributes": {
        "site_no": "01530332",
        "site_type": "sw",
        "station_nm": "CHEMUNG RIVER AT ELMIRA NY",
        "Office": "Ithaca",
        "latDD": "42.08638889",
        "lonDD": "-76.8011111",
        "nws_id": "CHEN6"
      }
    },
    {
      "SiteID": "420619076515201",
      "Attributes": {
        "site_no": "420619076515201",
        "site_type": "gw",
        "station_nm": "Local number, Cm-131, near Elmira NY",
        "Office": "Ithaca",
        "latDD": "42.10530556",
        "lonDD": "-76.8645",
        "nws_id": "n/a"
      }
    },
    {
      "SiteID": "420710077052101",
      "Attributes": {
        "site_no": "420710077052101",
        "site_type": "gw",
        "station_nm": "Local number, Sb-446, near Corning NY",
        "Office": "Ithaca",
        "latDD": "42.11955556",
        "lonDD": "-77.0890556",
        "nws_id": "n/a"
      }
    },
    {
      "SiteID": "420828076484601",
      "Attributes": {
        "site_no": "420828076484601",
        "site_type": "gw",
        "station_nm": "Local number, Cm-622, near Horseheads NY",
        "Office": "Ithaca",
        "latDD": "42.1411111",
        "lonDD": "-76.81277778",
        "nws_id": "n/a"
      }
    },
    {
      "SiteID": "422445077203301",
      "Attributes": {
        "site_no": "422445077203301",
        "site_type": "gw",
        "station_nm": "Local number, Sb-472, near Kanona NY",
        "Office": "Ithaca",
        "latDD": "42.41257085",
        "lonDD": "-77.3422032",
        "nws_id": "n/a"
      }
    },
    {
      "SiteID": "01531000",
      "Attributes": {
        "site_no": "01531000",
        "site_type": "sw",
        "station_nm": "CHEMUNG RIVER AT CHEMUNG NY",
        "Office": "Ithaca",
        "latDD": "42.0022222",
        "lonDD": "-76.6347222",
        "nws_id": "CMGN6"
      }
    },
    {
      "SiteID": "01525500",
      "Attributes": {
        "site_no": "01525500",
        "site_type": "sw",
        "station_nm": "CANISTEO RIVER AT WEST CAMERON NY",
        "Office": "Ithaca",
        "latDD": "42.2222222",
        "lonDD": "-77.41838889",
        "nws_id": "WCRN6"
      }
    },
    {
      "SiteID": "01521596",
      "Attributes": {
        "site_no": "01521596",
        "site_type": "sw",
        "station_nm": "BIG CREEK NEAR HOWARD NY",
        "Office": "Ithaca",
        "latDD": "42.367",
        "lonDD": "-77.57563889",
        "nws_id": "n/a"
      }
    },
    {
      "SiteID": "04218999",
      "Attributes": {
        "site_no": "04218999",
        "site_type": "sw",
        "station_nm": "ERIE (BARGE) CANAL DIVERSION AT LOCK 30",
        "Office": "Ithaca",
        "latDD": "43.07330556",
        "lonDD": "-77.30188889",
        "nws_id": "n/a"
      }
    },
    {
      "SiteID": "04219000",
      "Attributes": {
        "site_no": "04219000",
        "site_type": "sw",
        "station_nm": "ERIE (BARGE) CANAL AT LOCK 30 AT MACEDON NY",
        "Office": "Ithaca",
        "latDD": "43.07177778",
        "lonDD": "-77.2969722",
        "nws_id": "MCDN6"
      }
    },
    {
      "SiteID": "0423207760",
      "Attributes": {
        "site_no": "0423207760",
        "site_type": "sw",
        "station_nm": "LAKE ONTARIO AT SODUS POINT NY",
        "Office": "Ithaca",
        "latDD": "43.2773861",
        "lonDD": "-76.9739917",
        "nws_id": "SODN6"
      }
    },
    {
      "SiteID": "04232093",
      "Attributes": {
        "site_no": "04232093",
        "site_type": "sw",
        "station_nm": "LK ONTARIO AT BREAKWATER LIGHT 2 NR FAIR HAVEN NY",
        "Office": "Ithaca",
        "latDD": "43.35031667",
        "lonDD": "-76.7089444",
        "nws_id": "FAIN6"
      }
    },
    {
      "SiteID": "04234254",
      "Attributes": {
        "site_no": "04234254",
        "site_type": "sw",
        "station_nm": "GANARGUA CREEK AT MACEDON NY",
        "Office": "Ithaca",
        "latDD": "43.0674722",
        "lonDD": "-77.2982222",
        "nws_id": "MACN6"
      }
    },
    {
      "SiteID": "04235600",
      "Attributes": {
        "site_no": "04235600",
        "site_type": "sw",
        "station_nm": "SENECA RIVER (ERIE CANAL) NEAR PORT BYRON NY",
        "Office": "Ithaca",
        "latDD": "43.0786111",
        "lonDD": "-76.6455556",
        "nws_id": "BYRN6"
      }
    },
    {
      "SiteID": "04237020",
      "Attributes": {
        "site_no": "04237020",
        "site_type": "sw",
        "station_nm": "SENECA R (BARGE CANAL) AT CROSS LAKE NR JORDAN NY",
        "Office": "Ithaca",
        "latDD": "43.10013889",
        "lonDD": "-76.4981667",
        "nws_id": "CRXN6"
      }
    },
    {
      "SiteID": "04237411",
      "Attributes": {
        "site_no": "04237411",
        "site_type": "sw",
        "station_nm": "SENECA RIVER, MOUTH OF STATE DITCH, NR JORDAN NY",
        "Office": "Ithaca",
        "latDD": "43.11502778",
        "lonDD": "-76.4386111",
        "nws_id": "SSDN6"
      }
    },
    {
      "SiteID": "04237496",
      "Attributes": {
        "site_no": "04237496",
        "site_type": "sw",
        "station_nm": "SENECA RIVER NEAR BALDWINSVILLE NY",
        "Office": "Ithaca",
        "latDD": "43.1623333",
        "lonDD": "-76.3626944",
        "nws_id": "BDWN6"
      }
    },
    {
      "SiteID": "04247000",
      "Attributes": {
        "site_no": "04247000",
        "site_type": "sw",
        "station_nm": "ONEIDA RIVER NEAR EUCLID NY",
        "Office": "Ithaca",
        "latDD": "43.2053611",
        "lonDD": "-76.21777778",
        "nws_id": "EUCN6"
      }
    },
    {
      "SiteID": "04247055",
      "Attributes": {
        "site_no": "04247055",
        "site_type": "sw",
        "station_nm": "OSWEGO RIVER NEAR PHOENIX NY",
        "Office": "Ithaca",
        "latDD": "43.21116667",
        "lonDD": "-76.2871111",
        "nws_id": "PHXN6"
      }
    },
    {
      "SiteID": "430913077103101",
      "Attributes": {
        "site_no": "430913077103101",
        "site_type": "gw",
        "station_nm": "Local number, Wn-619, Marion NY",
        "Office": "Ithaca",
        "latDD": "43.1535833",
        "lonDD": "-77.1753333",
        "nws_id": "n/a"
      }
    },
    {
      "SiteID": "430311077051501",
      "Attributes": {
        "site_no": "430311077051501",
        "site_type": "gw",
        "station_nm": "Local number, Wn-594, near Newark NY",
        "Office": "Ithaca",
        "latDD": "43.0530833",
        "lonDD": "-77.0867222",
        "nws_id": "NWRN6"
      }
    },
    {
      "SiteID": "432148076225101",
      "Attributes": {
        "site_no": "432148076225101",
        "site_type": "gw",
        "station_nm": "Local number, Ow-5013, near Volney NY",
        "Office": "Ithaca",
        "latDD": "43.36352778",
        "lonDD": "-76.38038889",
        "nws_id": "VOLN6"
      }
    },
    {
      "SiteID": "432148076225102",
      "Attributes": {
        "site_no": "432148076225102",
        "site_type": "gw",
        "station_nm": "Local number, Ow-5014, near Volney NY",
        "Office": "Ithaca",
        "latDD": "43.36352778",
        "lonDD": "-76.38038889",
        "nws_id": "n/a"
      }
    },
    {
      "SiteID": "04235255",
      "Attributes": {
        "site_no": "04235255",
        "site_type": "sw",
        "station_nm": "CANANDAIGUA OUTLET TRIBUTARY NEAR ALLOWAY NY",
        "Office": "Ithaca",
        "latDD": "43.0058333",
        "lonDD": "-77.0147222",
        "nws_id": "n/a"
      }
    },
    {
      "SiteID": "01503980",
      "Attributes": {
        "site_no": "01503980",
        "site_type": "sw",
        "station_nm": "CHENANGO RIVER AT EATON NY",
        "Office": "Ithaca",
        "latDD": "42.85055556",
        "lonDD": "-75.6055556",
        "nws_id": "n/a"
      }
    },
    {
      "SiteID": "01509000",
      "Attributes": {
        "site_no": "01509000",
        "site_type": "sw",
        "station_nm": "TIOUGHNIOGA RIVER AT CORTLAND NY",
        "Office": "Ithaca",
        "latDD": "42.60266667",
        "lonDD": "-76.15938889",
        "nws_id": "CRTN6"
      }
    },
    {
      "SiteID": "04235299",
      "Attributes": {
        "site_no": "04235299",
        "site_type": "sw",
        "station_nm": "OWASCO INLET BELOW AURORA STREET AT MORAVIA NY",
        "Office": "Ithaca",
        "latDD": "42.7115833",
        "lonDD": "-76.434",
        "nws_id": "OWIN6"
      }
    },
    {
      "SiteID": "04235396",
      "Attributes": {
        "site_no": "04235396",
        "site_type": "sw",
        "station_nm": "OWASCO LAKE NEAR AUBURN NY",
        "Office": "Ithaca",
        "latDD": "42.90366667",
        "lonDD": "-76.53952778",
        "nws_id": "OWSN6"
      }
    },
    {
      "SiteID": "04235440",
      "Attributes": {
        "site_no": "04235440",
        "site_type": "sw",
        "station_nm": "OWASCO OUTLET AT GENESEE ST., AUBURN NY",
        "Office": "Ithaca",
        "latDD": "42.93238889",
        "lonDD": "-76.5635556",
        "nws_id": "AUON6"
      }
    },
    {
      "SiteID": "04235890",
      "Attributes": {
        "site_no": "04235890",
        "site_type": "sw",
        "station_nm": "GROUT BROOK NEAR FAIR HAVEN NY",
        "Office": "Ithaca",
        "latDD": "42.74202778",
        "lonDD": "-76.2653611",
        "nws_id": "GWTN6"
      }
    },
    {
      "SiteID": "04236800",
      "Attributes": {
        "site_no": "04236800",
        "site_type": "sw",
        "station_nm": "SKANEATELES CREEK NEAR SKANEATELES JUNCTION NY",
        "Office": "Ithaca",
        "latDD": "43.01488889",
        "lonDD": "-76.47225",
        "nws_id": "SKYN6"
      }
    },
    {
      "SiteID": "04240010",
      "Attributes": {
        "site_no": "04240010",
        "site_type": "sw",
        "station_nm": "ONONDAGA CREEK AT SPENCER STREET, SYRACUSE NY",
        "Office": "Ithaca",
        "latDD": "43.05744444",
        "lonDD": "-76.162",
        "nws_id": "ONCN6"
      }
    },
    {
      "SiteID": "04240495",
      "Attributes": {
        "site_no": "04240495",
        "site_type": "sw",
        "station_nm": "ONONDAGA LAKE AT LIVERPOOL NY",
        "Office": "Ithaca",
        "latDD": "43.10038889",
        "lonDD": "-76.2094444",
        "nws_id": "LVRN6"
      }
    },
    {
      "SiteID": "04243500",
      "Attributes": {
        "site_no": "04243500",
        "site_type": "sw",
        "station_nm": "ONEIDA CREEK AT ONEIDA NY",
        "Office": "Ithaca",
        "latDD": "43.09755556",
        "lonDD": "-75.6394167",
        "nws_id": "NEIN6"
      }
    },
    {
      "SiteID": "04243783",
      "Attributes": {
        "site_no": "04243783",
        "site_type": "sw",
        "station_nm": "COWASELON CREEK AT STATE ROUTE 13 AT CANASTOTA NY",
        "Office": "Ithaca",
        "latDD": "43.0956111",
        "lonDD": "-75.7512222",
        "nws_id": "COWN6"
      }
    },
    {
      "SiteID": "04244000",
      "Attributes": {
        "site_no": "04244000",
        "site_type": "sw",
        "station_nm": "CHITTENANGO CREEK NEAR CHITTENANGO NY",
        "Office": "Ithaca",
        "latDD": "43.02305556",
        "lonDD": "-75.8586111",
        "nws_id": "CTTN6"
      }
    },
    {
      "SiteID": "04245200",
      "Attributes": {
        "site_no": "04245200",
        "site_type": "sw",
        "station_nm": "BUTTERNUT CREEK NEAR JAMESVILLE NY",
        "Office": "Ithaca",
        "latDD": "42.93427778",
        "lonDD": "-76.0618611",
        "nws_id": "n/a"
      }
    },
    {
      "SiteID": "423322076143801",
      "Attributes": {
        "site_no": "423322076143801",
        "site_type": "gw",
        "station_nm": "Local number, C-1373, near Cortland NY",
        "Office": "Ithaca",
        "latDD": "42.5561111",
        "lonDD": "-76.24388889",
        "nws_id": "n/a"
      }
    },
    {
      "SiteID": "423827076035901",
      "Attributes": {
        "site_no": "423827076035901",
        "site_type": "gw",
        "station_nm": "Local number, C-586, near McGraw NY",
        "Office": "Ithaca",
        "latDD": "42.6408333",
        "lonDD": "-76.06638889",
        "nws_id": "n/a"
      }
    },
    {
      "SiteID": "424158076251901",
      "Attributes": {
        "site_no": "424158076251901",
        "site_type": "gw",
        "station_nm": "Local number, Cy-7, near Moravia NY",
        "Office": "Ithaca",
        "latDD": "42.69952778",
        "lonDD": "-76.4216111",
        "nws_id": "n/a"
      }
    },
    {
      "SiteID": "424452076081902",
      "Attributes": {
        "site_no": "424452076081902",
        "site_type": "gw",
        "station_nm": "Local number, C-998, near Preble NY",
        "Office": "Ithaca",
        "latDD": "42.74777778",
        "lonDD": "-76.1386111",
        "nws_id": "n/a"
      }
    },
    {
      "SiteID": "425448076350002",
      "Attributes": {
        "site_no": "425448076350002",
        "site_type": "gw",
        "station_nm": "Local number, Cy-223, at Auburn NY",
        "Office": "Ithaca",
        "latDD": "42.9133333",
        "lonDD": "-76.5833333",
        "nws_id": "n/a"
      }
    },
    {
      "SiteID": "425846075504501",
      "Attributes": {
        "site_no": "425846075504501",
        "site_type": "gw",
        "station_nm": "Local number, M-292, near Chittenango Falls NY",
        "Office": "Ithaca",
        "latDD": "42.97938889",
        "lonDD": "-75.84575",
        "nws_id": "n/a"
      }
    },
    {
      "SiteID": "430056075354102",
      "Attributes": {
        "site_no": "430056075354102",
        "site_type": "gw",
        "station_nm": "Local number, M-178, Valley Mills NY",
        "Office": "Ithaca",
        "latDD": "43.0156241",
        "lonDD": "-75.5943461",
        "nws_id": "n/a"
      }
    },
    {
      "SiteID": "430243076180401",
      "Attributes": {
        "site_no": "430243076180401",
        "site_type": "gw",
        "station_nm": "Local number, Od-1825, Camillus NY",
        "Office": "Ithaca",
        "latDD": "43.0453441",
        "lonDD": "-76.300763",
        "nws_id": "n/a"
      }
    },
    {
      "SiteID": "430243076180402",
      "Attributes": {
        "site_no": "430243076180402",
        "site_type": "gw",
        "station_nm": "Local number, Od-1833, Camillus NY",
        "Office": "Ithaca",
        "latDD": "43.0453441",
        "lonDD": "-76.300763",
        "nws_id": "n/a"
      }
    },
    {
      "SiteID": "04239000",
      "Attributes": {
        "site_no": "04239000",
        "site_type": "sw",
        "station_nm": "ONONDAGA CREEK AT DORWIN AVENUE, SYRACUSE NY",
        "Office": "Ithaca",
        "latDD": "42.9833333",
        "lonDD": "-76.1508333",
        "nws_id": "ONDN6"
      }
    },
    {
      "SiteID": "04238500",
      "Attributes": {
        "site_no": "04238500",
        "site_type": "sw",
        "station_nm": "ONONDAGA CR AT FLOOD CTRL DAM AT ONONDAGA NATION",
        "Office": "Ithaca",
        "latDD": "42.93044444",
        "lonDD": "-76.1731667",
        "nws_id": "n/a"
      }
    },
    {
      "SiteID": "04233286",
      "Attributes": {
        "site_no": "04233286",
        "site_type": "sw",
        "station_nm": "SIXMILE CREEK AT BROOKTONDALE NY",
        "Office": "Ithaca",
        "latDD": "42.38138889",
        "lonDD": "-76.3944444",
        "nws_id": "SXBN6"
      }
    },
    {
      "SiteID": "04233300",
      "Attributes": {
        "site_no": "04233300",
        "site_type": "sw",
        "station_nm": "SIXMILE CREEK AT BETHEL GROVE NY",
        "Office": "Ithaca",
        "latDD": "42.40305556",
        "lonDD": "-76.435",
        "nws_id": "SXMN6"
      }
    },
    {
      "SiteID": "01425805",
      "Attributes": {
        "site_no": "01425805",
        "site_type": "sw",
        "station_nm": "OQUAGA CREEK AT MCCLURE NY",
        "Office": "Ithaca",
        "latDD": "42.04869444",
        "lonDD": "-75.4851944",
        "nws_id": "OQGN6"
      }
    },
    {
      "SiteID": "01499500",
      "Attributes": {
        "site_no": "01499500",
        "site_type": "sw",
        "station_nm": "EAST SIDNEY LAKE AT EAST SIDNEY NY",
        "Office": "Ithaca",
        "latDD": "42.32785936",
        "lonDD": "-75.2279492",
        "nws_id": "ESDN6"
      }
    },
    {
      "SiteID": "01500000",
      "Attributes": {
        "site_no": "01500000",
        "site_type": "sw",
        "station_nm": "OULEOUT CREEK AT EAST SIDNEY NY",
        "Office": "Ithaca",
        "latDD": "42.33313889",
        "lonDD": "-75.2343056",
        "nws_id": "ESIN6"
      }
    },
    {
      "SiteID": "01500500",
      "Attributes": {
        "site_no": "01500500",
        "site_type": "sw",
        "station_nm": "SUSQUEHANNA RIVER AT UNADILLA NY",
        "Office": "Ithaca",
        "latDD": "42.3215",
        "lonDD": "-75.31638889",
        "nws_id": "UNDN6"
      }
    },
    {
      "SiteID": "01502500",
      "Attributes": {
        "site_no": "01502500",
        "site_type": "sw",
        "station_nm": "UNADILLA RIVER AT ROCKDALE NY",
        "Office": "Ithaca",
        "latDD": "42.37777778",
        "lonDD": "-75.4061111",
        "nws_id": "RCKN6"
      }
    },
    {
      "SiteID": "01502632",
      "Attributes": {
        "site_no": "01502632",
        "site_type": "sw",
        "station_nm": "SUSQUEHANNA RIVER AT BAINBRIDGE NY",
        "Office": "Ithaca",
        "latDD": "42.2918333",
        "lonDD": "-75.47677778",
        "nws_id": "BAIN6"
      }
    },
    {
      "SiteID": "01502731",
      "Attributes": {
        "site_no": "01502731",
        "site_type": "sw",
        "station_nm": "SUSQUEHANNA RIVER AT WINDSOR NY",
        "Office": "Ithaca",
        "latDD": "42.0748611",
        "lonDD": "-75.63763889",
        "nws_id": "WSRN6"
      }
    },
    {
      "SiteID": "01503000",
      "Attributes": {
        "site_no": "01503000",
        "site_type": "sw",
        "station_nm": "SUSQUEHANNA RIVER AT CONKLIN NY",
        "Office": "Ithaca",
        "latDD": "42.03530556",
        "lonDD": "-75.8030556",
        "nws_id": "CKLN6"
      }
    },
    {
      "SiteID": "01503500",
      "Attributes": {
        "site_no": "01503500",
        "site_type": "sw",
        "station_nm": "SUSQUEHANNA RIVER AT BINGHAMTON NY",
        "Office": "Ithaca",
        "latDD": "42.0925",
        "lonDD": "-75.9147222",
        "nws_id": "BNGN6"
      }
    },
    {
      "SiteID": "01513500",
      "Attributes": {
        "site_no": "01513500",
        "site_type": "sw",
        "station_nm": "SUSQUEHANNA RIVER AT VESTAL NY",
        "Office": "Ithaca",
        "latDD": "42.0908333",
        "lonDD": "-76.0561111",
        "nws_id": "VSTN6"
      }
    },
    {
      "SiteID": "421556075281602",
      "Attributes": {
        "site_no": "421556075281602",
        "site_type": "gw",
        "station_nm": "Local number, Cn-12, near Bainbridge NY",
        "Office": "Ithaca",
        "latDD": "42.2653611",
        "lonDD": "-75.4708056",
        "nws_id": "n/a"
      }
    },
    {
      "SiteID": "0142400103",
      "Attributes": {
        "site_no": "0142400103",
        "site_type": "sw",
        "station_nm": "TROUT CREEK NEAR TROUT CREEK NY",
        "Office": "Ithaca",
        "latDD": "42.1735833",
        "lonDD": "-75.2794444",
        "nws_id": "TRCN6"
      }
    },
    {
      "SiteID": "01423910",
      "Attributes": {
        "site_no": "01423910",
        "site_type": "sw",
        "station_nm": "CANNONSVILLE RESERVOIR NEAR KELSEY NY",
        "Office": "Ithaca",
        "latDD": "42.08880556",
        "lonDD": "-75.3125",
        "nws_id": "CNVN6"
      }
    },
    {
      "SiteID": "01426500",
      "Attributes": {
        "site_no": "01426500",
        "site_type": "sw",
        "station_nm": "WEST BRANCH DELAWARE RIVER AT HALE EDDY NY",
        "Office": "Ithaca",
        "latDD": "42.00302778",
        "lonDD": "-75.38352778",
        "nws_id": "HLEN6"
      }
    },
    {
      "SiteID": "01425000",
      "Attributes": {
        "site_no": "01425000",
        "site_type": "sw",
        "station_nm": "WEST BRANCH DELAWARE RIVER AT STILESVILLE NY",
        "Office": "Ithaca",
        "latDD": "42.07491667",
        "lonDD": "-75.3958056",
        "nws_id": "SLVN6"
      }
    },
    {
      "SiteID": "01423000",
      "Attributes": {
        "site_no": "01423000",
        "site_type": "sw",
        "station_nm": "WEST BRANCH DELAWARE RIVER AT WALTON NY",
        "Office": "Ithaca",
        "latDD": "42.1661111",
        "lonDD": "-75.14002778",
        "nws_id": "WALN6"
      }
    },
    {
      "SiteID": "01422779",
      "Attributes": {
        "site_no": "01422779",
        "site_type": "sw",
        "station_nm": "WEST BROOK AT AUSTIN LINCOLN PARK AT WALTON NY",
        "Office": "Ithaca",
        "latDD": "42.17738889",
        "lonDD": "-75.1289167",
        "nws_id": "WWAN6"
      }
    },
    {
      "SiteID": "01422747",
      "Attributes": {
        "site_no": "01422747",
        "site_type": "sw",
        "station_nm": "EAST BROOK EAST OF WALTON NY",
        "Office": "Ithaca",
        "latDD": "42.17266667",
        "lonDD": "-75.1219167",
        "nws_id": "EWAN6"
      }
    },
    {
      "SiteID": "01424998",
      "Attributes": {
        "site_no": "01424998",
        "site_type": "sw",
        "station_nm": "CANNONSVILLE RES RELEASE CHANNEL NR STILESVILLE NY",
        "Office": "Ithaca",
        "latDD": "42.06220556",
        "lonDD": "-75.37890278",
        "nws_id": "n/a"
      }
    },
    {
      "SiteID": "04232730",
      "Attributes": {
        "site_no": "04232730",
        "site_type": "sw",
        "station_nm": "SENECA RIVER NEAR SENECA FALLS NY",
        "Office": "Ithaca",
        "latDD": "42.93888889",
        "lonDD": "-76.7611111",
        "nws_id": "SEFN6"
      }
    },
    {
      "SiteID": "0423406130",
      "Attributes": {
        "site_no": "0423406130",
        "site_type": "sw",
        "station_nm": "SENECA RIVER AT FREE BRIDGE CORNERS NY",
        "Office": "Ithaca",
        "latDD": "42.96292674",
        "lonDD": "-76.7368961",
        "nws_id": "CFBN6"
      }
    },
    {
      "SiteID": "04234000",
      "Attributes": {
        "site_no": "04234000",
        "site_type": "sw",
        "station_nm": "FALL CREEK NEAR ITHACA NY",
        "Office": "Ithaca",
        "latDD": "42.4533333",
        "lonDD": "-76.47277778",
        "nws_id": "FLLN6"
      }
    },
    {
      "SiteID": "0423401815",
      "Attributes": {
        "site_no": "0423401815",
        "site_type": "sw",
        "station_nm": "SALMON CREEK NEAR LUDLOWVILLE NY",
        "Office": "Ithaca",
        "latDD": "42.5526111",
        "lonDD": "-76.5338333",
        "nws_id": "LUDN6"
      }
    },
    {
      "SiteID": "425821076461301",
      "Attributes": {
        "site_no": "425821076461301",
        "site_type": "gw",
        "station_nm": "Local number, Se-549, at Montezuma NWR NY",
        "Office": "Ithaca",
        "latDD": "42.9725",
        "lonDD": "-76.7703333",
        "nws_id": "n/a"
      }
    },
    {
      "SiteID": "422920076275301",
      "Attributes": {
        "site_no": "422920076275301",
        "site_type": "gw",
        "station_nm": "Local number, Tm-985, near Ithaca NY",
        "Office": "Ithaca",
        "latDD": "42.48888889",
        "lonDD": "-76.4647222",
        "nws_id": "n/a"
      }
    },
    {
      "SiteID": "0423527080",
      "Attributes": {
        "site_no": "0423527080",
        "site_type": "sw",
        "station_nm": "CLYDE RIVER (ERIE CANAL) AT CLYDE NY",
        "Office": "Ithaca",
        "latDD": "43.0825833",
        "lonDD": "-76.87752778",
        "nws_id": "CDEN6"
      }
    },
    {
      "SiteID": "04245840",
      "Attributes": {
        "site_no": "04245840",
        "site_type": "sw",
        "station_nm": "SCRIBA CREEK NEAR CONSTANTIA NY",
        "Office": "Ithaca",
        "latDD": "43.25980556",
        "lonDD": "-76.00277778",
        "nws_id": "COSN6"
      }
    },
    {
      "SiteID": "04249000",
      "Attributes": {
        "site_no": "04249000",
        "site_type": "sw",
        "station_nm": "OSWEGO RIVER AT LOCK 7, OSWEGO NY",
        "Office": "Ithaca",
        "latDD": "43.45166667",
        "lonDD": "-76.50527778",
        "nws_id": "OSON6"
      }
    },
    {
      "SiteID": "04215000",
      "Attributes": {
        "site_no": "04215000",
        "site_type": "sw",
        "station_nm": "CAYUGA CREEK NEAR LANCASTER NY",
        "Office": "Ithaca",
        "latDD": "42.8900833",
        "lonDD": "-78.6449444",
        "nws_id": "LCSN6"
      }
    },
    {
      "SiteID": "04216218",
      "Attributes": {
        "site_no": "04216218",
        "site_type": "sw",
        "station_nm": "BLACK ROCK CANAL AT BLACK ROCK LOCK, BUFFALO NY",
        "Office": "Ithaca",
        "latDD": "42.9338333",
        "lonDD": "-78.905",
        "nws_id": "BRCN6"
      }
    },
    {
      "SiteID": "04216220",
      "Attributes": {
        "site_no": "04216220",
        "site_type": "sw",
        "station_nm": "NIAGARA RIVER AT BLACK ROCK LOCK AT BUFFALO NY",
        "Office": "Ithaca",
        "latDD": "42.9338333",
        "lonDD": "-78.905",
        "nws_id": "n/a"
      }
    },
    {
      "SiteID": "04218601",
      "Attributes": {
        "site_no": "04218601",
        "site_type": "sw",
        "station_nm": "ERIE (BARGE) C ABV HALLS WASTE WEIR AT LOCKPORT NY",
        "Office": "Ithaca",
        "latDD": "43.17469444",
        "lonDD": "-78.6890556",
        "nws_id": "LCPN6"
      }
    },
    {
      "SiteID": "0421964005",
      "Attributes": {
        "site_no": "0421964005",
        "site_type": "sw",
        "station_nm": "NIAGARA RIVER AT MOUTH AT FORT NIAGARA NY",
        "Office": "Ithaca",
        "latDD": "43.2613333",
        "lonDD": "-79.0641944",
        "nws_id": "YNTN6"
      }
    },
    {
      "SiteID": "04219767",
      "Attributes": {
        "site_no": "04219767",
        "site_type": "sw",
        "station_nm": "EIGHTEENMILE CREEK AT NEWFANE NY",
        "Office": "Ithaca",
        "latDD": "43.25255556",
        "lonDD": "-78.6978611",
        "nws_id": "n/a"
      }
    },
    {
      "SiteID": "04219768",
      "Attributes": {
        "site_no": "04219768",
        "site_type": "sw",
        "station_nm": "EIGHTEENMILE CREEK AT BURT NY",
        "Office": "Ithaca",
        "latDD": "43.31380556",
        "lonDD": "-78.7154167",
        "nws_id": "BURN6"
      }
    },
    {
      "SiteID": "04219796",
      "Attributes": {
        "site_no": "04219796",
        "site_type": "sw",
        "station_nm": "LAKE ONTARIO (THIRTYMILE PT) AT GOLDEN HILL SP NY",
        "Office": "Ithaca",
        "latDD": "43.37527778",
        "lonDD": "-78.4864167",
        "nws_id": "LYNN6"
      }
    },
    {
      "SiteID": "04219915",
      "Attributes": {
        "site_no": "04219915",
        "site_type": "sw",
        "station_nm": "JOHNSON CREEK AT KUCKVILLE NY",
        "Office": "Ithaca",
        "latDD": "43.3608333",
        "lonDD": "-78.2645278",
        "nws_id": "KUCN6"
      }
    },
    {
      "SiteID": "04220045",
      "Attributes": {
        "site_no": "04220045",
        "site_type": "sw",
        "station_nm": "OAK ORCHARD CREEK NEAR SHELBY NY",
        "Office": "Ithaca",
        "latDD": "43.17430556",
        "lonDD": "-78.38638889",
        "nws_id": "SBYN6"
      }
    },
    {
      "SiteID": "0422016550",
      "Attributes": {
        "site_no": "0422016550",
        "site_type": "sw",
        "station_nm": "OAK ORCHARD CREEK NEAR KENYONVILLE NY",
        "Office": "Ithaca",
        "latDD": "43.301",
        "lonDD": "-78.3104444",
        "nws_id": "KNVN6"
      }
    },
    {
      "SiteID": "0422018610",
      "Attributes": {
        "site_no": "0422018610",
        "site_type": "sw",
        "station_nm": "OAK ORCHARD CREEK AT THE BRIDGES NY",
        "Office": "Ithaca",
        "latDD": "43.35330556",
        "lonDD": "-78.1930556",
        "nws_id": "BRIN6"
      }
    },
    {
      "SiteID": "04220209",
      "Attributes": {
        "site_no": "04220209",
        "site_type": "sw",
        "station_nm": "LK ONTARIO AT HAMLIN BEACH ST PARK NR N HAMLIN NY",
        "Office": "Ithaca",
        "latDD": "43.357425",
        "lonDD": "-77.9246028",
        "nws_id": "HMLN6"
      }
    },
    {
      "SiteID": "04220223",
      "Attributes": {
        "site_no": "04220223",
        "site_type": "sw",
        "station_nm": "SANDY CREEK AT NORTH HAMLIN NY",
        "Office": "Ithaca",
        "latDD": "43.3390833",
        "lonDD": "-77.9152222",
        "nws_id": "NHLN6"
      }
    },
    {
      "SiteID": "430739078502701",
      "Attributes": {
        "site_no": "430739078502701",
        "site_type": "gw",
        "station_nm": "Local number, Ni-869, at Shawnee NY",
        "Office": "Ithaca",
        "latDD": "43.12777778",
        "lonDD": "-78.841",
        "nws_id": "n/a"
      }
    },
    {
      "SiteID": "430924078241301",
      "Attributes": {
        "site_no": "430924078241301",
        "site_type": "gw",
        "station_nm": "Local number, Ol-27, near West Shelby NY",
        "Office": "Ithaca",
        "latDD": "43.15677778",
        "lonDD": "-78.40363889",
        "nws_id": "SHYN6"
      }
    },
    {
      "SiteID": "431045078160401",
      "Attributes": {
        "site_no": "431045078160401",
        "site_type": "gw",
        "station_nm": "Local number, Ol-20, Barre NY",
        "Office": "Ithaca",
        "latDD": "43.17916667",
        "lonDD": "-78.2680278",
        "nws_id": "n/a"
      }
    },
    {
      "SiteID": "431308078544501",
      "Attributes": {
        "site_no": "431308078544501",
        "site_type": "gw",
        "station_nm": "Local number, Ni-70, near Ransomville NY",
        "Office": "Ithaca",
        "latDD": "43.21894444",
        "lonDD": "-78.9122222",
        "nws_id": "RSVN6"
      }
    },
    {
      "SiteID": "04224000",
      "Attributes": {
        "site_no": "04224000",
        "site_type": "sw",
        "station_nm": "MOUNT MORRIS LAKE NEAR MOUNT MORRIS NY",
        "Office": "Ithaca",
        "latDD": "42.7333957",
        "lonDD": "-77.9108373",
        "nws_id": "MMDN6"
      }
    },
    {
      "SiteID": "04226000",
      "Attributes": {
        "site_no": "04226000",
        "site_type": "sw",
        "station_nm": "KESHEQUA CR AT CRAIG COLONY AT SONYEA NY",
        "Office": "Ithaca",
        "latDD": "42.6824722",
        "lonDD": "-77.8286944",
        "nws_id": "KESN6"
      }
    },
    {
      "SiteID": "04227000",
      "Attributes": {
        "site_no": "04227000",
        "site_type": "sw",
        "station_nm": "CANASERAGA CREEK AT SHAKERS CROSSING NY",
        "Office": "Ithaca",
        "latDD": "42.73605556",
        "lonDD": "-77.8414167",
        "nws_id": "SHKN6"
      }
    },
    {
      "SiteID": "04227500",
      "Attributes": {
        "site_no": "04227500",
        "site_type": "sw",
        "station_nm": "GENESEE RIVER NEAR MOUNT MORRIS NY",
        "Office": "Ithaca",
        "latDD": "42.76666667",
        "lonDD": "-77.83888889",
        "nws_id": "JONN6"
      }
    },
    {
      "SiteID": "04227980",
      "Attributes": {
        "site_no": "04227980",
        "site_type": "sw",
        "station_nm": "CONESUS LAKE NEAR LAKEVILLE NY",
        "Office": "Ithaca",
        "latDD": "42.79425",
        "lonDD": "-77.72075",
        "nws_id": "CNSN6"
      }
    },
    {
      "SiteID": "04227995",
      "Attributes": {
        "site_no": "04227995",
        "site_type": "sw",
        "station_nm": "CONESUS CREEK NEAR LAKEVILLE NY",
        "Office": "Ithaca",
        "latDD": "42.85416667",
        "lonDD": "-77.71527778",
        "nws_id": "LLLN6"
      }
    },
    {
      "SiteID": "0423245850",
      "Attributes": {
        "site_no": "0423245850",
        "site_type": "sw",
        "station_nm": "SUGAR CREEK AT COUNTY HOUSE ROAD AT GUYANOGA NY",
        "Office": "Ithaca",
        "latDD": "42.62769444",
        "lonDD": "-77.1589167",
        "nws_id": "SGGN6"
      }
    },
    {
      "SiteID": "04234398",
      "Attributes": {
        "site_no": "04234398",
        "site_type": "sw",
        "station_nm": "WEST RIVER AT MIDDLESEX NY",
        "Office": "Ithaca",
        "latDD": "42.70466667",
        "lonDD": "-77.2759167",
        "nws_id": "MDXN6"
      }
    },
    {
      "SiteID": "04232482",
      "Attributes": {
        "site_no": "04232482",
        "site_type": "sw",
        "station_nm": "KEUKA LAKE OUTLET AT DRESDEN NY",
        "Office": "Ithaca",
        "latDD": "42.6803333",
        "lonDD": "-76.95388889",
        "nws_id": "DRDN6"
      }
    },
    {
      "SiteID": "424024076574801",
      "Attributes": {
        "site_no": "424024076574801",
        "site_type": "gw",
        "station_nm": "Local number, Ya-182, at Dresden NY",
        "Office": "Ithaca",
        "latDD": "42.6732222",
        "lonDD": "-76.9633611",
        "nws_id": "n/a"
      }
    },
    {
      "SiteID": "423143076582601",
      "Attributes": {
        "site_no": "423143076582601",
        "site_type": "gw",
        "station_nm": "Local number, Ya-180, Dundee NY",
        "Office": "Ithaca",
        "latDD": "42.52880556",
        "lonDD": "-76.974",
        "nws_id": "n/a"
      }
    },
    {
      "SiteID": "04232200",
      "Attributes": {
        "site_no": "04232200",
        "site_type": "sw",
        "station_nm": "CATHARINE CR AT MONTOUR FALLS NY",
        "Office": "Ithaca",
        "latDD": "42.32827778",
        "lonDD": "-76.8439167",
        "nws_id": "CTEN6"
      }
    },
    {
      "SiteID": "04229500",
      "Attributes": {
        "site_no": "04229500",
        "site_type": "sw",
        "station_nm": "HONEOYE CREEK AT HONEOYE FALLS NY",
        "Office": "Ithaca",
        "latDD": "42.9572222",
        "lonDD": "-77.58888889",
        "nws_id": "HNYN6"
      }
    },
    {
      "SiteID": "04228500",
      "Attributes": {
        "site_no": "04228500",
        "site_type": "sw",
        "station_nm": "GENESEE RIVER AT AVON NY",
        "Office": "Ithaca",
        "latDD": "42.9227222",
        "lonDD": "-77.7574167",
        "nws_id": "AVNN6"
      }
    },
    {
      "SiteID": "04235000",
      "Attributes": {
        "site_no": "04235000",
        "site_type": "sw",
        "station_nm": "CANANDAIGUA OUTLET AT CHAPIN NY",
        "Office": "Ithaca",
        "latDD": "42.9182222",
        "lonDD": "-77.23277778",
        "nws_id": "CPNN6"
      }
    },
    {
      "SiteID": "425803077151201",
      "Attributes": {
        "site_no": "425803077151201",
        "site_type": "gw",
        "station_nm": "Local number, Ot-1133, near Manchester NY",
        "Office": "Ithaca",
        "latDD": "42.9675",
        "lonDD": "-77.2533333",
        "nws_id": "n/a"
      }
    },
    {
      "SiteID": "425840077133901",
      "Attributes": {
        "site_no": "425840077133901",
        "site_type": "gw",
        "station_nm": "Local number, Ot-900, near Manchester NY",
        "Office": "Ithaca",
        "latDD": "42.9778411",
        "lonDD": "-77.2272029",
        "nws_id": "n/a"
      }
    },
    {
      "SiteID": "04235250",
      "Attributes": {
        "site_no": "04235250",
        "site_type": "sw",
        "station_nm": "FLINT CREEK AT PHELPS NY",
        "Office": "Ithaca",
        "latDD": "42.95777778",
        "lonDD": "-77.0680556",
        "nws_id": "FLIN6"
      }
    },
    {
      "SiteID": "04234138",
      "Attributes": {
        "site_no": "04234138",
        "site_type": "sw",
        "station_nm": "SCHAEFFER CREEK NEAR CANANDAIGUA NY",
        "Office": "Ithaca",
        "latDD": "42.90694444",
        "lonDD": "-77.37027778",
        "nws_id": "n/a"
      }
    },
    {
      "SiteID": "425833077503901",
      "Attributes": {
        "site_no": "425833077503901",
        "site_type": "gw",
        "station_nm": "Local number, Lv-330, Caledonia NY",
        "Office": "Ithaca",
        "latDD": "42.97580556",
        "lonDD": "-77.8440833",
        "nws_id": "n/a"
      }
    },
    {
      "SiteID": "425844077532901",
      "Attributes": {
        "site_no": "425844077532901",
        "site_type": "gw",
        "station_nm": "Local number, Lv-333, near Caledonia NY",
        "Office": "Ithaca",
        "latDD": "42.9789",
        "lonDD": "-77.8914",
        "nws_id": "CALN6"
      }
    },
    {
      "SiteID": "01521000",
      "Attributes": {
        "site_no": "01521000",
        "site_type": "sw",
        "station_nm": "ARKPORT RESERVOIR NEAR ARKPORT NY",
        "Office": "Ithaca",
        "latDD": "42.39590205",
        "lonDD": "-77.7186048",
        "nws_id": "AKLN6"
      }
    },
    {
      "SiteID": "04221000",
      "Attributes": {
        "site_no": "04221000",
        "site_type": "sw",
        "station_nm": "GENESEE RIVER AT WELLSVILLE NY",
        "Office": "Ithaca",
        "latDD": "42.1222222",
        "lonDD": "-77.9572222",
        "nws_id": "WELN6"
      }
    },
    {
      "SiteID": "04223000",
      "Attributes": {
        "site_no": "04223000",
        "site_type": "sw",
        "station_nm": "GENESEE RIVER AT PORTAGEVILLE NY",
        "Office": "Ithaca",
        "latDD": "42.57027778",
        "lonDD": "-78.0422222",
        "nws_id": "PRTN6"
      }
    },
    {
      "SiteID": "04224775",
      "Attributes": {
        "site_no": "04224775",
        "site_type": "sw",
        "station_nm": "CANASERAGA CREEK ABOVE DANSVILLE NY",
        "Office": "Ithaca",
        "latDD": "42.53555556",
        "lonDD": "-77.7041667",
        "nws_id": "DSVN6"
      }
    },
    {
      "SiteID": "04224803",
      "Attributes": {
        "site_no": "04224803",
        "site_type": "sw",
        "station_nm": "STONY BROOK AT CO HWY 46 AT SOUTH DANSVILLE NY",
        "Office": "Ithaca",
        "latDD": "42.47388889",
        "lonDD": "-77.6576667",
        "nws_id": "n/a"
      }
    },
    {
      "SiteID": "04218000",
      "Attributes": {
        "site_no": "04218000",
        "site_type": "sw",
        "station_nm": "TONAWANDA CREEK AT RAPIDS NY",
        "Office": "Ithaca",
        "latDD": "43.0935",
        "lonDD": "-78.6361667",
        "nws_id": "RAPN6"
      }
    },
    {
      "SiteID": "04230380",
      "Attributes": {
        "site_no": "04230380",
        "site_type": "sw",
        "station_nm": "OATKA CREEK AT WARSAW NY",
        "Office": "Ithaca",
        "latDD": "42.74266667",
        "lonDD": "-78.1376111",
        "nws_id": "WRWN6"
      }
    },
    {
      "SiteID": "04216418",
      "Attributes": {
        "site_no": "04216418",
        "site_type": "sw",
        "station_nm": "TONAWANDA CREEK AT ATTICA NY",
        "Office": "Ithaca",
        "latDD": "42.86469444",
        "lonDD": "-78.2834167",
        "nws_id": "ATTN6"
      }
    },
    {
      "SiteID": "425913078085501",
      "Attributes": {
        "site_no": "425913078085501",
        "site_type": "gw",
        "station_nm": "Local number, Gs-190, at Batavia NY",
        "Office": "Ithaca",
        "latDD": "42.987",
        "lonDD": "-78.1481944",
        "nws_id": "n/a"
      }
    },
    {
      "SiteID": "430146078101301",
      "Attributes": {
        "site_no": "430146078101301",
        "site_type": "gw",
        "station_nm": "Local number, Gs-217, near Batavia NY",
        "Office": "Ithaca",
        "latDD": "43.02963889",
        "lonDD": "-78.1704444",
        "nws_id": "BTWN6"
      }
    },
    {
      "SiteID": "423743078070802",
      "Attributes": {
        "site_no": "423743078070802",
        "site_type": "gw",
        "station_nm": "Local number, Wo-4, near Gainesville NY",
        "Office": "Ithaca",
        "latDD": "42.62867339",
        "lonDD": "-78.1186201",
        "nws_id": "n/a"
      }
    },
    {
      "SiteID": "424406078075301",
      "Attributes": {
        "site_no": "424406078075301",
        "site_type": "gw",
        "station_nm": "Local number, Wo-237, at Warsaw NY",
        "Office": "Ithaca",
        "latDD": "42.73511667",
        "lonDD": "-78.1314667",
        "nws_id": "n/a"
      }
    },
    {
      "SiteID": "04217000",
      "Attributes": {
        "site_no": "04217000",
        "site_type": "sw",
        "station_nm": "TONAWANDA CREEK AT BATAVIA NY",
        "Office": "Ithaca",
        "latDD": "42.99713889",
        "lonDD": "-78.1881667",
        "nws_id": "BTVN6"
      }
    },
    {
      "SiteID": "421512077472801",
      "Attributes": {
        "site_no": "421512077472801",
        "site_type": "gw",
        "station_nm": "Local number, Ag-261, at Alfred NY",
        "Office": "Ithaca",
        "latDD": "42.2533333",
        "lonDD": "-77.7911111",
        "nws_id": "AFDN6"
      }
    },
    {
      "SiteID": "421544078021301",
      "Attributes": {
        "site_no": "421544078021301",
        "site_type": "gw",
        "station_nm": "Local number, Ag-262, near Belmont NY",
        "Office": "Ithaca",
        "latDD": "42.2622222",
        "lonDD": "-78.0369444",
        "nws_id": "n/a"
      }
    },
    {
      "SiteID": "01521500",
      "Attributes": {
        "site_no": "01521500",
        "site_type": "sw",
        "station_nm": "CANISTEO RIVER AT ARKPORT NY",
        "Office": "Ithaca",
        "latDD": "42.3958333",
        "lonDD": "-77.71138889",
        "nws_id": "ACKN6"
      }
    },
    {
      "SiteID": "01523000",
      "Attributes": {
        "site_no": "01523000",
        "site_type": "sw",
        "station_nm": "ALMOND LAKE NEAR ALMOND NY",
        "Office": "Ithaca",
        "latDD": "42.3489582",
        "lonDD": "-77.70249279",
        "nws_id": "HRLN6"
      }
    },
    {
      "SiteID": "01523500",
      "Attributes": {
        "site_no": "01523500",
        "site_type": "sw",
        "station_nm": "CANACADEA CREEK NEAR HORNELL NY",
        "Office": "Ithaca",
        "latDD": "42.3348611",
        "lonDD": "-77.6826667",
        "nws_id": "HRNN6"
      }
    },
    {
      "SiteID": "01524500",
      "Attributes": {
        "site_no": "01524500",
        "site_type": "sw",
        "station_nm": "CANISTEO RIVER BELOW CANACADEA CREEK AT HORNELL NY",
        "Office": "Ithaca",
        "latDD": "42.3134722",
        "lonDD": "-77.6510833",
        "nws_id": "HORN6"
      }
    },
    {
      "SiteID": "425430078292701",
      "Attributes": {
        "site_no": "425430078292701",
        "site_type": "gw",
        "station_nm": "Local number, E-96, at Alden NY",
        "Office": "Ithaca",
        "latDD": "42.9079722",
        "lonDD": "-78.4900556",
        "nws_id": "n/a"
      }
    },
    {
      "SiteID": "421946078274901",
      "Attributes": {
        "site_no": "421946078274901",
        "site_type": "at",
        "station_nm": "FRANKLINVILLE RAIN GAGE",
        "Office": "Ithaca",
        "latDD": "42.3294722",
        "lonDD": "-78.46363889",
        "nws_id": "FKNN6"
      }
    },
    {
      "SiteID": "03010734",
      "Attributes": {
        "site_no": "03010734",
        "site_type": "sw",
        "station_nm": "ISCHUA CREEK TRIB NEAR MACHIAS NY",
        "Office": "Ithaca",
        "latDD": "42.40802778",
        "lonDD": "-78.52588889",
        "nws_id": "n/a"
      }
    },
    {
      "SiteID": "03010674",
      "Attributes": {
        "site_no": "03010674",
        "site_type": "sw",
        "station_nm": "ROOT CREEK AT DAVIS STREET AT BOLIVAR NY",
        "Office": "Ithaca",
        "latDD": "42.06438889",
        "lonDD": "-78.1629444",
        "nws_id": "BLVN6"
      }
    },